{
"type": "FeatureCollection",
"name": "service_locations",
"crs": { "type": "name", "properties": { "name": "urn:ogc:def:crs:OGC:1.3:CRS84" } },
"features": [
{ "type": "Feature", "properties": { "name": null, "type": "Child_Care_Centers", "programs": null, "address": null, "city": null, "tract_geoid": "06073003202", "total_population": 5005, "closest_stop_name": "Cumberland St & Seabreeze Dr", "closest_stop_dist_m": "83", "source": "SANDAG" }, "geometry": { "type": "Point", "coordinates": [ -117.06100069450018, 32.676799748670618 ] } },
{ "type": "Feature", "properties": { "name": null, "type": "Child_Care_Centers", "programs": null, "address": null, "city": null, "tract_geoid": "06073014300", "total_population": 4282, "closest_stop_name": "Massachusetts Av & San Miguel Av", "closest_stop_dist_m": "435", "source": "SANDAG" }, "geometry": { "type": "Point", "coordinates": [ -117.047620534944755, 32.736127926374046 ] } },
{ "type": "Feature", "properties": { "name": null, "type": "Child_Care_Centers", "programs": null, "address": null, "city": null, "tract_geoid": "06073014300", "total_population": 4282, "closest_stop_name": "Skyline Dr & Lincoln St", "closest_stop_dist_m": "487", "source": "SANDAG" }, "geometry": { "type": "Point", "coordinates": [ -117.031554230712999, 32.737497225556382 ] } },
{ "type": "Feature", "properties": { "name": null, "type": "Child_Care_Centers", "programs": null, "address": null, "city": null, "tract_geoid": "06073013102", "total_population": 7058, "closest_stop_name": "Hilltop Dr & L St", "closest_stop_dist_m": "166", "source": "SANDAG" }, "geometry": { "type": "Point", "coordinates": [ -117.059137966007, 32.622239013484176 ] } },
{ "type": "Feature", "properties": { "name": null, "type": "Child_Care_Centers", "programs": null, "address": null, "city": null, "tract_geoid": "06073011000", "total_population": 2922, "closest_stop_name": "Orange Av & 2nd St", "closest_stop_dist_m": "106", "source": "SANDAG" }, "geometry": { "type": "Point", "coordinates": [ -117.172105269442284, 32.698235404533122 ] } },
{ "type": "Feature", "properties": { "name": null, "type": "Child_Care_Centers", "programs": null, "address": null, "city": null, "tract_geoid": "06073021202", "total_population": 3238, "closest_stop_name": "Viejas Bl & Viejas Grade Rd (Perkins Store)", "closest_stop_dist_m": "901", "source": "SANDAG" }, "geometry": { "type": "Point", "coordinates": [ -116.606037651011434, 32.854551481740373 ] } },
{ "type": "Feature", "properties": { "name": null, "type": "Child_Care_Centers", "programs": null, "address": null, "city": null, "tract_geoid": "06073016100", "total_population": 6199, "closest_stop_name": "Fletcher Pkwy & Navajo Rd", "closest_stop_dist_m": "273", "source": "SANDAG" }, "geometry": { "type": "Point", "coordinates": [ -117.000337868759743, 32.799543893299607 ] } },
{ "type": "Feature", "properties": { "name": null, "type": "Child_Care_Centers", "programs": null, "address": null, "city": null, "tract_geoid": "06073000301", "total_population": 2311, "closest_stop_name": "1st Av & Robinson Av", "closest_stop_dist_m": "117", "source": "SANDAG" }, "geometry": { "type": "Point", "coordinates": [ -117.164648342030816, 32.745918982368678 ] } },
{ "type": "Feature", "properties": { "name": null, "type": "Child_Care_Centers", "programs": null, "address": null, "city": null, "tract_geoid": "06073013605", "total_population": 6383, "closest_stop_name": "Calle Verde & Avocado Bl", "closest_stop_dist_m": "460", "source": "SANDAG" }, "geometry": { "type": "Point", "coordinates": [ -116.960915752871983, 32.752503163263825 ] } },
{ "type": "Feature", "properties": { "name": null, "type": "Child_Care_Centers", "programs": null, "address": null, "city": null, "tract_geoid": "06073000201", "total_population": 2270, "closest_stop_name": "Lewis St & Lark St", "closest_stop_dist_m": "229", "source": "SANDAG" }, "geometry": { "type": "Point", "coordinates": [ -117.176129560429757, 32.753906028161829 ] } },
{ "type": "Feature", "properties": { "name": null, "type": "Child_Care_Centers", "programs": null, "address": null, "city": null, "tract_geoid": "06073010900", "total_population": 1658, "closest_stop_name": "Orange Av & 10th St", "closest_stop_dist_m": "147", "source": "SANDAG" }, "geometry": { "type": "Point", "coordinates": [ -117.177986688079258, 32.686000088906198 ] } },
{ "type": "Feature", "properties": { "name": null, "type": "Child_Care_Centers", "programs": null, "address": null, "city": null, "tract_geoid": "06073012302", "total_population": 1462, "closest_stop_name": "F St & Del Mar Av", "closest_stop_dist_m": "71", "source": "SANDAG" }, "geometry": { "type": "Point", "coordinates": [ -117.07859586709732, 32.641113223989876 ] } },
{ "type": "Feature", "properties": { "name": null, "type": "Child_Care_Centers", "programs": null, "address": null, "city": null, "tract_geoid": "06073016705", "total_population": 4792, "closest_stop_name": "Woodside Av & Channel Rd", "closest_stop_dist_m": "162", "source": "SANDAG" }, "geometry": { "type": "Point", "coordinates": [ -116.925949580812599, 32.858233447463185 ] } },
{ "type": "Feature", "properties": { "name": null, "type": "Child_Care_Centers", "programs": null, "address": null, "city": null, "tract_geoid": "06073000201", "total_population": 2270, "closest_stop_name": "Lewis St & Jackdaw St", "closest_stop_dist_m": "38", "source": "SANDAG" }, "geometry": { "type": "Point", "coordinates": [ -117.174279081444425, 32.751544638620821 ] } },
{ "type": "Feature", "properties": { "name": null, "type": "Child_Care_Centers", "programs": null, "address": null, "city": null, "tract_geoid": "06073014901", "total_population": 4994, "closest_stop_name": "La Mesa Bl & Glen St", "closest_stop_dist_m": "286", "source": "SANDAG" }, "geometry": { "type": "Point", "coordinates": [ -117.009292440920802, 32.767191201531247 ] } },
{ "type": "Feature", "properties": { "name": null, "type": "Child_Care_Centers", "programs": null, "address": null, "city": null, "tract_geoid": "06073004300", "total_population": 4181, "closest_stop_name": "Upas St & 30th St", "closest_stop_dist_m": "187", "source": "SANDAG" }, "geometry": { "type": "Point", "coordinates": [ -117.128526849905398, 32.739533535933262 ] } },
{ "type": "Feature", "properties": { "name": null, "type": "Child_Care_Centers", "programs": null, "address": null, "city": null, "tract_geoid": "06073013801", "total_population": 5381, "closest_stop_name": "Campo Rd & Merritt Bl", "closest_stop_dist_m": "344", "source": "SANDAG" }, "geometry": { "type": "Point", "coordinates": [ -117.006881924182679, 32.749741450394637 ] } },
{ "type": "Feature", "properties": { "name": null, "type": "Child_Care_Centers", "programs": null, "address": null, "city": null, "tract_geoid": "06073000600", "total_population": 3221, "closest_stop_name": "University Av & Richmond St", "closest_stop_dist_m": "165", "source": "SANDAG" }, "geometry": { "type": "Point", "coordinates": [ -117.150846705885485, 32.750150250602402 ] } },
{ "type": "Feature", "properties": { "name": null, "type": "Child_Care_Centers", "programs": null, "address": null, "city": null, "tract_geoid": "06073014901", "total_population": 4994, "closest_stop_name": "La Mesa Blvd Station", "closest_stop_dist_m": "230", "source": "SANDAG" }, "geometry": { "type": "Point", "coordinates": [ -117.018559201198002, 32.763650614260811 ] } },
{ "type": "Feature", "properties": { "name": null, "type": "Child_Care_Centers", "programs": null, "address": null, "city": null, "tract_geoid": "06073015001", "total_population": 4418, "closest_stop_name": "Lake Murray Bl & El Paso St", "closest_stop_dist_m": "471", "source": "SANDAG" }, "geometry": { "type": "Point", "coordinates": [ -117.018753044781079, 32.786254736829946 ] } },
{ "type": "Feature", "properties": { "name": null, "type": "Child_Care_Centers", "programs": null, "address": null, "city": null, "tract_geoid": "06073005700", "total_population": 2451, "closest_stop_name": "4th Av & Date St", "closest_stop_dist_m": "46", "source": "SANDAG" }, "geometry": { "type": "Point", "coordinates": [ -117.1615797097528, 32.723448656335755 ] } },
{ "type": "Feature", "properties": { "name": null, "type": "Child_Care_Centers", "programs": null, "address": null, "city": null, "tract_geoid": "06073013601", "total_population": 5214, "closest_stop_name": "Campo Rd & Conrad Dr", "closest_stop_dist_m": "304", "source": "SANDAG" }, "geometry": { "type": "Point", "coordinates": [ -116.987007210741794, 32.750829492326119 ] } },
{ "type": "Feature", "properties": { "name": null, "type": "Child_Care_Centers", "programs": null, "address": null, "city": null, "tract_geoid": "06073015407", "total_population": 3640, "closest_stop_name": "Washington Av & 1st St", "closest_stop_dist_m": "38", "source": "SANDAG" }, "geometry": { "type": "Point", "coordinates": [ -116.943794769434277, 32.787433506559395 ] } },
{ "type": "Feature", "properties": { "name": null, "type": "Child_Care_Centers", "programs": null, "address": null, "city": null, "tract_geoid": "06073006100", "total_population": 2115, "closest_stop_name": "Middletown Station", "closest_stop_dist_m": "321", "source": "SANDAG" }, "geometry": { "type": "Point", "coordinates": [ -117.174521544438917, 32.736656295246476 ] } },
{ "type": "Feature", "properties": { "name": null, "type": "Child_Care_Centers", "programs": null, "address": null, "city": null, "tract_geoid": "06073010300", "total_population": 3884, "closest_stop_name": "9th St & Ebony Av", "closest_stop_dist_m": "44", "source": "SANDAG" }, "geometry": { "type": "Point", "coordinates": [ -117.114648588738305, 32.577003429285803 ] } },
{ "type": "Feature", "properties": { "name": null, "type": "Child_Care_Centers", "programs": null, "address": null, "city": null, "tract_geoid": "06073010001", "total_population": 3869, "closest_stop_name": "Palm Av & Piccard Av", "closest_stop_dist_m": "181", "source": "SANDAG" }, "geometry": { "type": "Point", "coordinates": [ -117.048898655368717, 32.584714257793621 ] } },
{ "type": "Feature", "properties": { "name": null, "type": "Child_Care_Centers", "programs": null, "address": null, "city": null, "tract_geoid": "06073013903", "total_population": 3471, "closest_stop_name": "Jamacha Bl & Kempton St", "closest_stop_dist_m": "347", "source": "SANDAG" }, "geometry": { "type": "Point", "coordinates": [ -117.00308878278436, 32.704526495597676 ] } },
{ "type": "Feature", "properties": { "name": null, "type": "Child_Care_Centers", "programs": null, "address": null, "city": null, "tract_geoid": "06073011000", "total_population": 2922, "closest_stop_name": "Orange Av & 5th St", "closest_stop_dist_m": "6", "source": "SANDAG" }, "geometry": { "type": "Point", "coordinates": [ -117.175298365137635, 32.693138458205894 ] } },
{ "type": "Feature", "properties": { "name": null, "type": "Child_Care_Centers", "programs": null, "address": null, "city": null, "tract_geoid": "06073002801", "total_population": 5239, "closest_stop_name": "SDSU Transit Center", "closest_stop_dist_m": "109", "source": "SANDAG" }, "geometry": { "type": "Point", "coordinates": [ -117.072180263346482, 32.772216041160434 ] } },
{ "type": "Feature", "properties": { "name": null, "type": "Child_Care_Centers", "programs": null, "address": null, "city": null, "tract_geoid": "06073005201", "total_population": 3503, "closest_stop_name": "Broadway & 15th St", "closest_stop_dist_m": "216", "source": "SANDAG" }, "geometry": { "type": "Point", "coordinates": [ -117.14925118453516, 32.717625134609548 ] } },
{ "type": "Feature", "properties": { "name": null, "type": "Child_Care_Centers", "programs": null, "address": null, "city": null, "tract_geoid": "06073012303", "total_population": 3418, "closest_stop_name": "E St & 1st Av", "closest_stop_dist_m": "265", "source": "SANDAG" }, "geometry": { "type": "Point", "coordinates": [ -117.073155597601556, 32.649615350993088 ] } },
{ "type": "Feature", "properties": { "name": null, "type": "Child_Care_Centers", "programs": null, "address": null, "city": null, "tract_geoid": "06073013601", "total_population": 5214, "closest_stop_name": "Campo Rd & Bonita St", "closest_stop_dist_m": "104", "source": "SANDAG" }, "geometry": { "type": "Point", "coordinates": [ -116.984562368268683, 32.748979739943451 ] } },
{ "type": "Feature", "properties": { "name": null, "type": "Child_Care_Centers", "programs": null, "address": null, "city": null, "tract_geoid": "06073003301", "total_population": 3548, "closest_stop_name": "National Av & San Pasqual St", "closest_stop_dist_m": "125", "source": "SANDAG" }, "geometry": { "type": "Point", "coordinates": [ -117.103315721854003, 32.697515461751109 ] } },
{ "type": "Feature", "properties": { "name": null, "type": "Child_Care_Centers", "programs": null, "address": null, "city": null, "tract_geoid": "06073010107", "total_population": 5645, "closest_stop_name": "Palm Av & Beejay Dr", "closest_stop_dist_m": "120", "source": "SANDAG" }, "geometry": { "type": "Point", "coordinates": [ -117.080270762410962, 32.585101173011765 ] } },
{ "type": "Feature", "properties": { "name": null, "type": "Child_Care_Centers", "programs": null, "address": null, "city": null, "tract_geoid": "06073013605", "total_population": 6383, "closest_stop_name": "Calle Verde & Avocado Bl", "closest_stop_dist_m": "362", "source": "SANDAG" }, "geometry": { "type": "Point", "coordinates": [ -116.961127648578596, 32.751620770852554 ] } },
{ "type": "Feature", "properties": { "name": null, "type": "Child_Care_Centers", "programs": null, "address": null, "city": null, "tract_geoid": "06073015502", "total_population": 3013, "closest_stop_name": "Alpine Bl & Peutz Valley Rd", "closest_stop_dist_m": "2097", "source": "SANDAG" }, "geometry": { "type": "Point", "coordinates": [ -116.816231978946917, 32.830407570698526 ] } },
{ "type": "Feature", "properties": { "name": null, "type": "Child_Care_Centers", "programs": null, "address": null, "city": null, "tract_geoid": "06073013607", "total_population": 2151, "closest_stop_name": "Calle Verde & Via Mercado", "closest_stop_dist_m": "226", "source": "SANDAG" }, "geometry": { "type": "Point", "coordinates": [ -116.957081040075835, 32.746077279121515 ] } },
{ "type": "Feature", "properties": { "name": null, "type": "Child_Care_Centers", "programs": null, "address": null, "city": null, "tract_geoid": "06073014400", "total_population": 4426, "closest_stop_name": "Broadway & Washington St", "closest_stop_dist_m": "165", "source": "SANDAG" }, "geometry": { "type": "Point", "coordinates": [ -117.023489572613158, 32.744990827263116 ] } },
{ "type": "Feature", "properties": { "name": null, "type": "Child_Care_Centers", "programs": null, "address": null, "city": null, "tract_geoid": "06073015704", "total_population": 4928, "closest_stop_name": "Washington Av & Ballard St", "closest_stop_dist_m": "271", "source": "SANDAG" }, "geometry": { "type": "Point", "coordinates": [ -116.941069887041536, 32.790157720732886 ] } },
{ "type": "Feature", "properties": { "name": null, "type": "Child_Care_Centers", "programs": null, "address": null, "city": null, "tract_geoid": "06073003202", "total_population": 5005, "closest_stop_name": "Cumberland St & Reo Dr", "closest_stop_dist_m": "204", "source": "SANDAG" }, "geometry": { "type": "Point", "coordinates": [ -117.062326865887727, 32.674157328889081 ] } },
{ "type": "Feature", "properties": { "name": null, "type": "Child_Care_Centers", "programs": null, "address": null, "city": null, "tract_geoid": "06073015407", "total_population": 3640, "closest_stop_name": "Washington Av & Lincoln Av", "closest_stop_dist_m": "360", "source": "SANDAG" }, "geometry": { "type": "Point", "coordinates": [ -116.952530231795834, 32.784390366199297 ] } },
{ "type": "Feature", "properties": { "name": null, "type": "Child_Care_Centers", "programs": null, "address": null, "city": null, "tract_geoid": "06073000302", "total_population": 2873, "closest_stop_name": "5th Av & Pennsylvania Av", "closest_stop_dist_m": "150", "source": "SANDAG" }, "geometry": { "type": "Point", "coordinates": [ -117.15869631931858, 32.745356598686485 ] } },
{ "type": "Feature", "properties": { "name": null, "type": "Child_Care_Centers", "programs": null, "address": null, "city": null, "tract_geoid": "06073000202", "total_population": 3755, "closest_stop_name": "Lewis St & Lark St", "closest_stop_dist_m": "250", "source": "SANDAG" }, "geometry": { "type": "Point", "coordinates": [ -117.176269171131295, 32.749640924312772 ] } },
{ "type": "Feature", "properties": { "name": null, "type": "Child_Care_Centers", "programs": null, "address": null, "city": null, "tract_geoid": "06073014701", "total_population": 3688, "closest_stop_name": "El Cajon Bl & 73rd St", "closest_stop_dist_m": "180", "source": "SANDAG" }, "geometry": { "type": "Point", "coordinates": [ -117.041352578888322, 32.767245545861904 ] } },
{ "type": "Feature", "properties": { "name": null, "type": "Child_Care_Centers", "programs": null, "address": null, "city": null, "tract_geoid": "06073016608", "total_population": 2471, "closest_stop_name": "Woodglen Vista Dr & Magnolia Av", "closest_stop_dist_m": "657", "source": "SANDAG" }, "geometry": { "type": "Point", "coordinates": [ -116.969928426117605, 32.871662001168602 ] } },
{ "type": "Feature", "properties": { "name": null, "type": "Child_Care_Centers", "programs": null, "address": null, "city": null, "tract_geoid": "06073009000", "total_population": 3778, "closest_stop_name": "Linda Vista Rd & Via Las Cumbres", "closest_stop_dist_m": "605", "source": "SANDAG" }, "geometry": { "type": "Point", "coordinates": [ -117.181806730504604, 32.776728712523926 ] } },
{ "type": "Feature", "properties": { "name": null, "type": "Child_Care_Centers", "programs": null, "address": null, "city": null, "tract_geoid": "06073015802", "total_population": 4479, "closest_stop_name": "Magnolia Av & E Camden Av", "closest_stop_dist_m": "28", "source": "SANDAG" }, "geometry": { "type": "Point", "coordinates": [ -116.961866619783606, 32.790473735472318 ] } },
{ "type": "Feature", "properties": { "name": null, "type": "Child_Care_Centers", "programs": null, "address": null, "city": null, "tract_geoid": "06073001400", "total_population": 3285, "closest_stop_name": "University Av & Pershing Av", "closest_stop_dist_m": "46", "source": "SANDAG" }, "geometry": { "type": "Point", "coordinates": [ -117.134791379374633, 32.748229031456859 ] } },
{ "type": "Feature", "properties": { "name": null, "type": "Child_Care_Centers", "programs": null, "address": null, "city": null, "tract_geoid": "06073013417", "total_population": 2127, "closest_stop_name": "East H St & Eastlake Dr", "closest_stop_dist_m": "264", "source": "SANDAG" }, "geometry": { "type": "Point", "coordinates": [ -116.983771207230035, 32.654926499587397 ] } },
{ "type": "Feature", "properties": { "name": null, "type": "Child_Care_Centers", "programs": null, "address": null, "city": null, "tract_geoid": "06073016401", "total_population": 5194, "closest_stop_name": "2nd St & Greenfield Dr", "closest_stop_dist_m": "662", "source": "SANDAG" }, "geometry": { "type": "Point", "coordinates": [ -116.928495787438919, 32.813839736216686 ] } },
{ "type": "Feature", "properties": { "name": null, "type": "Child_Care_Centers", "programs": null, "address": null, "city": null, "tract_geoid": "06073003211", "total_population": 3094, "closest_stop_name": "Cumberland St & Calle Tres Lomas", "closest_stop_dist_m": "574", "source": "SANDAG" }, "geometry": { "type": "Point", "coordinates": [ -117.056037031737674, 32.672934286521503 ] } },
{ "type": "Feature", "properties": { "name": null, "type": "Child_Care_Centers", "programs": null, "address": null, "city": null, "tract_geoid": "06073009103", "total_population": 4011, "closest_stop_name": "Clairemont Dr & Hartford Ct", "closest_stop_dist_m": "1162", "source": "SANDAG" }, "geometry": { "type": "Point", "coordinates": [ -117.189948734714221, 32.783284006798233 ] } },
{ "type": "Feature", "properties": { "name": null, "type": "Child_Care_Centers", "programs": null, "address": null, "city": null, "tract_geoid": "06073013416", "total_population": 4115, "closest_stop_name": "East H St & Auburn Av", "closest_stop_dist_m": "188", "source": "SANDAG" }, "geometry": { "type": "Point", "coordinates": [ -116.991521242425094, 32.644857507705254 ] } },
{ "type": "Feature", "properties": { "name": null, "type": "Child_Care_Centers", "programs": null, "address": null, "city": null, "tract_geoid": "06073002709", "total_population": 3987, "closest_stop_name": "University Av & 50th St", "closest_stop_dist_m": "296", "source": "SANDAG" }, "geometry": { "type": "Point", "coordinates": [ -117.085477973037356, 32.746627812821032 ] } },
{ "type": "Feature", "properties": { "name": null, "type": "Child_Care_Centers", "programs": null, "address": null, "city": null, "tract_geoid": "06073014804", "total_population": 4527, "closest_stop_name": "Baltimore Dr & Lake Murray Bl", "closest_stop_dist_m": "118", "source": "SANDAG" }, "geometry": { "type": "Point", "coordinates": [ -117.034189727256901, 32.781492138637269 ] } },
{ "type": "Feature", "properties": { "name": null, "type": "Child_Care_Centers", "programs": null, "address": null, "city": null, "tract_geoid": "06073016619", "total_population": 4319, "closest_stop_name": "Grossmont College", "closest_stop_dist_m": "106", "source": "SANDAG" }, "geometry": { "type": "Point", "coordinates": [ -117.006306949691634, 32.815746872956481 ] } },
{ "type": "Feature", "properties": { "name": null, "type": "Child_Care_Centers", "programs": null, "address": null, "city": null, "tract_geoid": "06073011700", "total_population": 7364, "closest_stop_name": "D Av & Plaza Bl", "closest_stop_dist_m": "96", "source": "SANDAG" }, "geometry": { "type": "Point", "coordinates": [ -117.101578590234098, 32.676048013756528 ] } },
{ "type": "Feature", "properties": { "name": null, "type": "Child_Care_Centers", "programs": null, "address": null, "city": null, "tract_geoid": "06073021900", "total_population": 5794, "closest_stop_name": "18th St & Harding Av", "closest_stop_dist_m": "61", "source": "SANDAG" }, "geometry": { "type": "Point", "coordinates": [ -117.106859171725645, 32.666034837850567 ] } },
{ "type": "Feature", "properties": { "name": null, "type": "Child_Care_Centers", "programs": null, "address": null, "city": null, "tract_geoid": "06073011902", "total_population": 6050, "closest_stop_name": "Division St & Euclid Av", "closest_stop_dist_m": "306", "source": "SANDAG" }, "geometry": { "type": "Point", "coordinates": [ -117.088534547969715, 32.688350878608851 ] } },
{ "type": "Feature", "properties": { "name": null, "type": "Child_Care_Centers", "programs": null, "address": null, "city": null, "tract_geoid": "06073003108", "total_population": 3447, "closest_stop_name": "Paradise Valley Rd & Elkelton Bl", "closest_stop_dist_m": "355", "source": "SANDAG" }, "geometry": { "type": "Point", "coordinates": [ -117.015351212704715, 32.705035068533583 ] } },
{ "type": "Feature", "properties": { "name": null, "type": "Child_Care_Centers", "programs": null, "address": null, "city": null, "tract_geoid": "06073004102", "total_population": 2103, "closest_stop_name": "Market St & 28th St", "closest_stop_dist_m": "234", "source": "SANDAG" }, "geometry": { "type": "Point", "coordinates": [ -117.134152686605603, 32.713810966741597 ] } },
{ "type": "Feature", "properties": { "name": null, "type": "Child_Care_Centers", "programs": null, "address": null, "city": null, "tract_geoid": "06073021304", "total_population": 3181, "closest_stop_name": "Hwy 94 & Maxfield Rd", "closest_stop_dist_m": "2260", "source": "SANDAG" }, "geometry": { "type": "Point", "coordinates": [ -116.855159593854324, 32.729867929068476 ] } },
{ "type": "Feature", "properties": { "name": null, "type": "Child_Care_Centers", "programs": null, "address": null, "city": null, "tract_geoid": "06073013909", "total_population": 4742, "closest_stop_name": "Grand Av & Jamacha Rd", "closest_stop_dist_m": "152", "source": "SANDAG" }, "geometry": { "type": "Point", "coordinates": [ -116.996971465553344, 32.713603925054969 ] } },
{ "type": "Feature", "properties": { "name": null, "type": "Child_Care_Centers", "programs": null, "address": null, "city": null, "tract_geoid": "06073012102", "total_population": 2708, "closest_stop_name": "Euclid Av & 24th St", "closest_stop_dist_m": "134", "source": "SANDAG" }, "geometry": { "type": "Point", "coordinates": [ -117.075799296717079, 32.669958342537726 ] } },
{ "type": "Feature", "properties": { "name": null, "type": "Child_Care_Centers", "programs": null, "address": null, "city": null, "tract_geoid": "06073016616", "total_population": 3568, "closest_stop_name": "Mission Gorge Rd & Hazeldon Dr", "closest_stop_dist_m": "670", "source": "SANDAG" }, "geometry": { "type": "Point", "coordinates": [ -116.995964642115567, 32.832640882922405 ] } },
{ "type": "Feature", "properties": { "name": null, "type": "Child_Care_Centers", "programs": null, "address": null, "city": null, "tract_geoid": "06073015602", "total_population": 2732, "closest_stop_name": "3rd St & Madison Av", "closest_stop_dist_m": "492", "source": "SANDAG" }, "geometry": { "type": "Point", "coordinates": [ -116.921780222538757, 32.799968847484287 ] } },
{ "type": "Feature", "properties": { "name": null, "type": "Child_Care_Centers", "programs": null, "address": null, "city": null, "tract_geoid": "06073003305", "total_population": 6200, "closest_stop_name": "47th St & Ocean View Bl", "closest_stop_dist_m": "40", "source": "SANDAG" }, "geometry": { "type": "Point", "coordinates": [ -117.094018964632156, 32.69989061493191 ] } },
{ "type": "Feature", "properties": { "name": null, "type": "Child_Care_Centers", "programs": null, "address": null, "city": null, "tract_geoid": "06073014806", "total_population": 3277, "closest_stop_name": "La Mesa Bl & Lee Av", "closest_stop_dist_m": "122", "source": "SANDAG" }, "geometry": { "type": "Point", "coordinates": [ -117.030754939931001, 32.768588184147283 ] } },
{ "type": "Feature", "properties": { "name": null, "type": "Child_Care_Centers", "programs": null, "address": null, "city": null, "tract_geoid": "06073010013", "total_population": 5259, "closest_stop_name": "Beyer Bl & Poplar St", "closest_stop_dist_m": "212", "source": "SANDAG" }, "geometry": { "type": "Point", "coordinates": [ -117.050636267766393, 32.557959391916746 ] } },
{ "type": "Feature", "properties": { "name": null, "type": "Child_Care_Centers", "programs": null, "address": null, "city": null, "tract_geoid": "06073010005", "total_population": 6487, "closest_stop_name": "Beyer Bl & Poplar St", "closest_stop_dist_m": "240", "source": "SANDAG" }, "geometry": { "type": "Point", "coordinates": [ -117.049570672168684, 32.561889641450058 ] } },
{ "type": "Feature", "properties": { "name": null, "type": "Child_Care_Centers", "programs": null, "address": null, "city": null, "tract_geoid": "06073003111", "total_population": 6194, "closest_stop_name": "Skyline Dr & Radio Dr", "closest_stop_dist_m": "19", "source": "SANDAG" }, "geometry": { "type": "Point", "coordinates": [ -117.070393215097724, 32.701677804454981 ] } },
{ "type": "Feature", "properties": { "name": null, "type": "Child_Care_Centers", "programs": null, "address": null, "city": null, "tract_geoid": "06073009104", "total_population": 3064, "closest_stop_name": "Morena Bl & Littlefield St", "closest_stop_dist_m": "713", "source": "SANDAG" }, "geometry": { "type": "Point", "coordinates": [ -117.19966961175804, 32.779688213739398 ] } },
{ "type": "Feature", "properties": { "name": null, "type": "Child_Care_Centers", "programs": null, "address": null, "city": null, "tract_geoid": "06073003111", "total_population": 6194, "closest_stop_name": "Imperial Av & Euclid Av", "closest_stop_dist_m": "85", "source": "SANDAG" }, "geometry": { "type": "Point", "coordinates": [ -117.083450125988819, 32.704715640776904 ] } },
{ "type": "Feature", "properties": { "name": null, "type": "Child_Care_Centers", "programs": null, "address": null, "city": null, "tract_geoid": "06073015601", "total_population": 6110, "closest_stop_name": "Lexington Av & Gina Av", "closest_stop_dist_m": "351", "source": "SANDAG" }, "geometry": { "type": "Point", "coordinates": [ -116.926415598584796, 32.792955747546827 ] } },
{ "type": "Feature", "properties": { "name": null, "type": "Child_Care_Centers", "programs": null, "address": null, "city": null, "tract_geoid": "06073010300", "total_population": 3884, "closest_stop_name": "Imperial Beach Bl & Emory St", "closest_stop_dist_m": "244", "source": "SANDAG" }, "geometry": { "type": "Point", "coordinates": [ -117.112057661671599, 32.574491187603151 ] } },
{ "type": "Feature", "properties": { "name": null, "type": "Child_Care_Centers", "programs": null, "address": null, "city": null, "tract_geoid": "06073014806", "total_population": 3277, "closest_stop_name": "El Cajon Bl & Parks Av", "closest_stop_dist_m": "167", "source": "SANDAG" }, "geometry": { "type": "Point", "coordinates": [ -117.035706543281776, 32.768563452349596 ] } },
{ "type": "Feature", "properties": { "name": null, "type": "Child_Care_Centers", "programs": null, "address": null, "city": null, "tract_geoid": "06073021101", "total_population": 4714, "closest_stop_name": "Hwy 94 & Potrero Post Office - Park & Ride", "closest_stop_dist_m": "700", "source": "SANDAG" }, "geometry": { "type": "Point", "coordinates": [ -116.612587420249284, 32.61097284564184 ] } },
{ "type": "Feature", "properties": { "name": null, "type": "Child_Care_Centers", "programs": null, "address": null, "city": null, "tract_geoid": "06073015302", "total_population": 4518, "closest_stop_name": "Magnolia Av & Chase Bl", "closest_stop_dist_m": "206", "source": "SANDAG" }, "geometry": { "type": "Point", "coordinates": [ -116.96030056584884, 32.780152645927515 ] } },
{ "type": "Feature", "properties": { "name": null, "type": "Child_Care_Centers", "programs": null, "address": null, "city": null, "tract_geoid": "06073003502", "total_population": 4637, "closest_stop_name": "National Av & 36th St", "closest_stop_dist_m": "201", "source": "SANDAG" }, "geometry": { "type": "Point", "coordinates": [ -117.117657395320194, 32.69771761064532 ] } },
{ "type": "Feature", "properties": { "name": null, "type": "Child_Care_Centers", "programs": null, "address": null, "city": null, "tract_geoid": "06073010009", "total_population": 5298, "closest_stop_name": "Willow Rd & Camino De La Plaza", "closest_stop_dist_m": "19", "source": "SANDAG" }, "geometry": { "type": "Point", "coordinates": [ -117.04227536139048, 32.546852744222235 ] } },
{ "type": "Feature", "properties": { "name": null, "type": "Child_Care_Centers", "programs": null, "address": null, "city": null, "tract_geoid": "06073003401", "total_population": 6109, "closest_stop_name": "Home Av & Gateway Dr", "closest_stop_dist_m": "38", "source": "SANDAG" }, "geometry": { "type": "Point", "coordinates": [ -117.106798434909166, 32.723123944447295 ] } },
{ "type": "Feature", "properties": { "name": null, "type": "Child_Care_Centers", "programs": null, "address": null, "city": null, "tract_geoid": "06073003305", "total_population": 6200, "closest_stop_name": "Euclid Av & Manzanares Wy", "closest_stop_dist_m": "140", "source": "SANDAG" }, "geometry": { "type": "Point", "coordinates": [ -117.085717034014877, 32.702656977979238 ] } },
{ "type": "Feature", "properties": { "name": null, "type": "Child_Care_Centers", "programs": null, "address": null, "city": null, "tract_geoid": "06073012003", "total_population": 2931, "closest_stop_name": "Harbison Av & Plaza Bl", "closest_stop_dist_m": "219", "source": "SANDAG" }, "geometry": { "type": "Point", "coordinates": [ -117.074554604585259, 32.679451758323843 ] } },
{ "type": "Feature", "properties": { "name": null, "type": "Child_Care_Centers", "programs": null, "address": null, "city": null, "tract_geoid": "06073013420", "total_population": 3174, "closest_stop_name": "East H St & Paseo Ranchero", "closest_stop_dist_m": "644", "source": "SANDAG" }, "geometry": { "type": "Point", "coordinates": [ -117.016931848093876, 32.641991329139856 ] } },
{ "type": "Feature", "properties": { "name": null, "type": "Child_Care_Centers", "programs": null, "address": null, "city": null, "tract_geoid": "06073016301", "total_population": 5120, "closest_stop_name": "Madison Av & Ballantyne St", "closest_stop_dist_m": "121", "source": "SANDAG" }, "geometry": { "type": "Point", "coordinates": [ -116.956192124103566, 32.800804734374978 ] } },
{ "type": "Feature", "properties": { "name": null, "type": "Child_Care_Centers", "programs": null, "address": null, "city": null, "tract_geoid": "06073013412", "total_population": 5358, "closest_stop_name": "East H St & Hidden Vista Dr", "closest_stop_dist_m": "611", "source": "SANDAG" }, "geometry": { "type": "Point", "coordinates": [ -117.044494806141202, 32.644763984957791 ] } },
{ "type": "Feature", "properties": { "name": null, "type": "Child_Care_Centers", "programs": null, "address": null, "city": null, "tract_geoid": "06073014601", "total_population": 4791, "closest_stop_name": "La Mesa Bl & Culowee St", "closest_stop_dist_m": "47", "source": "SANDAG" }, "geometry": { "type": "Point", "coordinates": [ -117.027568370086001, 32.765807711821097 ] } },
{ "type": "Feature", "properties": { "name": null, "type": "Child_Care_Centers", "programs": null, "address": null, "city": null, "tract_geoid": "06073008307", "total_population": 4355, "closest_stop_name": "Genesee Av & Governor Dr", "closest_stop_dist_m": "105", "source": "SANDAG" }, "geometry": { "type": "Point", "coordinates": [ -117.205340654064841, 32.853393092053636 ] } },
{ "type": "Feature", "properties": { "name": null, "type": "Child_Care_Centers", "programs": null, "address": null, "city": null, "tract_geoid": "06073020601", "total_population": 6208, "closest_stop_name": "2nd Av & Broadway", "closest_stop_dist_m": "203", "source": "SANDAG" }, "geometry": { "type": "Point", "coordinates": [ -117.078813241028044, 33.119654971356383 ] } },
{ "type": "Feature", "properties": { "name": null, "type": "Child_Care_Centers", "programs": null, "address": null, "city": null, "tract_geoid": "06073018905", "total_population": 6182, "closest_stop_name": "Alvarado St & Brandon Rd", "closest_stop_dist_m": "1752", "source": "SANDAG" }, "geometry": { "type": "Point", "coordinates": [ -117.228935597315925, 33.374202181774457 ] } },
{ "type": "Feature", "properties": { "name": null, "type": "Child_Care_Centers", "programs": null, "address": null, "city": null, "tract_geoid": "06073018504", "total_population": 6885, "closest_stop_name": "El Camino Real & Fire Mountain Dr", "closest_stop_dist_m": "44", "source": "SANDAG" }, "geometry": { "type": "Point", "coordinates": [ -117.328650681687577, 33.192100598393992 ] } },
{ "type": "Feature", "properties": { "name": null, "type": "Child_Care_Centers", "programs": null, "address": null, "city": null, "tract_geoid": "06073008101", "total_population": 3511, "closest_stop_name": "Pearl St & Fay Av", "closest_stop_dist_m": "202", "source": "SANDAG" }, "geometry": { "type": "Point", "coordinates": [ -117.272237679174523, 32.838861955983852 ] } },
{ "type": "Feature", "properties": { "name": null, "type": "Child_Care_Centers", "programs": null, "address": null, "city": null, "tract_geoid": "06073017106", "total_population": 4174, "closest_stop_name": "Paseo Delicias & Via De La Valle", "closest_stop_dist_m": "402", "source": "SANDAG" }, "geometry": { "type": "Point", "coordinates": [ -117.197003405203859, 33.020148228568296 ] } },
{ "type": "Feature", "properties": { "name": null, "type": "Child_Care_Centers", "programs": null, "address": null, "city": null, "tract_geoid": "06073002100", "total_population": 5333, "closest_stop_name": "Adams Av & Kensington Dr", "closest_stop_dist_m": "180", "source": "SANDAG" }, "geometry": { "type": "Point", "coordinates": [ -117.105985701128063, 32.764632822405147 ] } },
{ "type": "Feature", "properties": { "name": null, "type": "Child_Care_Centers", "programs": null, "address": null, "city": null, "tract_geoid": "06073008201", "total_population": 1986, "closest_stop_name": "Girard Av & Kline St", "closest_stop_dist_m": "261", "source": "SANDAG" }, "geometry": { "type": "Point", "coordinates": [ -117.276361948826505, 32.843274260552583 ] } },
{ "type": "Feature", "properties": { "name": null, "type": "Child_Care_Centers", "programs": null, "address": null, "city": null, "tract_geoid": "06073008102", "total_population": 3591, "closest_stop_name": "La Jolla Bl & Mira Monte Plaza", "closest_stop_dist_m": "72", "source": "SANDAG" }, "geometry": { "type": "Point", "coordinates": [ -117.273518773581841, 32.82163266990402 ] } },
{ "type": "Feature", "properties": { "name": null, "type": "Child_Care_Centers", "programs": null, "address": null, "city": null, "tract_geoid": "06073009307", "total_population": 4846, "closest_stop_name": "Texas St & Camino Del Rio South", "closest_stop_dist_m": "290", "source": "SANDAG" }, "geometry": { "type": "Point", "coordinates": [ -117.142499598862997, 32.767187114697386 ] } },
{ "type": "Feature", "properties": { "name": null, "type": "Child_Care_Centers", "programs": null, "address": null, "city": null, "tract_geoid": "06073019210", "total_population": 6167, "closest_stop_name": "Oak Dr & Foothill Dr", "closest_stop_dist_m": "259", "source": "SANDAG" }, "geometry": { "type": "Point", "coordinates": [ -117.218985562795794, 33.216767701208113 ] } },
{ "type": "Feature", "properties": { "name": null, "type": "Child_Care_Centers", "programs": null, "address": null, "city": null, "tract_geoid": "06073008502", "total_population": 6507, "closest_stop_name": "Clairemont Mesa Bl & Clairemont Dr", "closest_stop_dist_m": "126", "source": "SANDAG" }, "geometry": { "type": "Point", "coordinates": [ -117.200192556148181, 32.83429032063588 ] } },
{ "type": "Feature", "properties": { "name": null, "type": "Child_Care_Centers", "programs": null, "address": null, "city": null, "tract_geoid": "06073007907", "total_population": 3085, "closest_stop_name": "Garnet Av & Jewell St", "closest_stop_dist_m": "97", "source": "SANDAG" }, "geometry": { "type": "Point", "coordinates": [ -117.239571586409724, 32.799365027873655 ] } },
{ "type": "Feature", "properties": { "name": null, "type": "Child_Care_Centers", "programs": null, "address": null, "city": null, "tract_geoid": "06073017801", "total_population": 6941, "closest_stop_name": "Monroe St & Chestnut Av", "closest_stop_dist_m": "43", "source": "SANDAG" }, "geometry": { "type": "Point", "coordinates": [ -117.326291399377283, 33.162157775201948 ] } },
{ "type": "Feature", "properties": { "name": null, "type": "Child_Care_Centers", "programs": null, "address": null, "city": null, "tract_geoid": "06073006900", "total_population": 6093, "closest_stop_name": "Chatsworth Bl & Tennyson St", "closest_stop_dist_m": "82", "source": "SANDAG" }, "geometry": { "type": "Point", "coordinates": [ -117.229686115280202, 32.739157301284813 ] } },
{ "type": "Feature", "properties": { "name": null, "type": "Child_Care_Centers", "programs": null, "address": null, "city": null, "tract_geoid": "06073017057", "total_population": 3856, "closest_stop_name": "Rancho Bernardo Rd & Pomerado Rd", "closest_stop_dist_m": "180", "source": "SANDAG" }, "geometry": { "type": "Point", "coordinates": [ -117.061780367621239, 33.02041754542963 ] } },
{ "type": "Feature", "properties": { "name": null, "type": "Child_Care_Centers", "programs": null, "address": null, "city": null, "tract_geoid": "06073009801", "total_population": 5311, "closest_stop_name": "Jackson Dr & Twin Lake Dr", "closest_stop_dist_m": "776", "source": "SANDAG" }, "geometry": { "type": "Point", "coordinates": [ -117.026356496348527, 32.802522288247296 ] } },
{ "type": "Feature", "properties": { "name": null, "type": "Child_Care_Centers", "programs": null, "address": null, "city": null, "tract_geoid": "06073017306", "total_population": 2670, "closest_stop_name": "San Rodolfo Dr & Plaza West", "closest_stop_dist_m": "638", "source": "SANDAG" }, "geometry": { "type": "Point", "coordinates": [ -117.25358233854918, 32.991727095632179 ] } },
{ "type": "Feature", "properties": { "name": null, "type": "Child_Care_Centers", "programs": null, "address": null, "city": null, "tract_geoid": "06073007910", "total_population": 3021, "closest_stop_name": "Grand Av & Cass St", "closest_stop_dist_m": "102", "source": "SANDAG" }, "geometry": { "type": "Point", "coordinates": [ -117.249937052414836, 32.794976796484818 ] } },
{ "type": "Feature", "properties": { "name": null, "type": "Child_Care_Centers", "programs": null, "address": null, "city": null, "tract_geoid": "06073009101", "total_population": 5425, "closest_stop_name": "Clairemont Dr & 3502", "closest_stop_dist_m": "68", "source": "SANDAG" }, "geometry": { "type": "Point", "coordinates": [ -117.200544164459046, 32.804178392890307 ] } },
{ "type": "Feature", "properties": { "name": null, "type": "Child_Care_Centers", "programs": null, "address": null, "city": null, "tract_geoid": "06073018519", "total_population": 6007, "closest_stop_name": "Emerald Dr & West Dr", "closest_stop_dist_m": "188", "source": "SANDAG" }, "geometry": { "type": "Point", "coordinates": [ -117.280976447043287, 33.192155407293846 ] } },
{ "type": "Feature", "properties": { "name": null, "type": "Child_Care_Centers", "programs": null, "address": null, "city": null, "tract_geoid": "06073017308", "total_population": 2388, "closest_stop_name": "Lomas Santa Fe Dr & Hilmen Dr", "closest_stop_dist_m": "198", "source": "SANDAG" }, "geometry": { "type": "Point", "coordinates": [ -117.262141320299563, 32.995288626957347 ] } },
{ "type": "Feature", "properties": { "name": null, "type": "Child_Care_Centers", "programs": null, "address": null, "city": null, "tract_geoid": "06073008306", "total_population": 2711, "closest_stop_name": "Regents Rd & Governor Dr", "closest_stop_dist_m": "587", "source": "SANDAG" }, "geometry": { "type": "Point", "coordinates": [ -117.222947682349059, 32.849205259716342 ] } },
{ "type": "Feature", "properties": { "name": null, "type": "Child_Care_Centers", "programs": null, "address": null, "city": null, "tract_geoid": "06073017106", "total_population": 4174, "closest_stop_name": "Paseo Delicias & Via De La Valle", "closest_stop_dist_m": "81", "source": "SANDAG" }, "geometry": { "type": "Point", "coordinates": [ -117.197753667537498, 33.023376836215888 ] } },
{ "type": "Feature", "properties": { "name": null, "type": "Child_Care_Centers", "programs": null, "address": null, "city": null, "tract_geoid": "06073020705", "total_population": 4879, "closest_stop_name": "San Pasqual Valley Rd & Oak Hill Dr", "closest_stop_dist_m": "994", "source": "SANDAG" }, "geometry": { "type": "Point", "coordinates": [ -117.059531944086316, 33.114970472991565 ] } },
{ "type": "Feature", "properties": { "name": null, "type": "Child_Care_Centers", "programs": null, "address": null, "city": null, "tract_geoid": "06073017701", "total_population": 5137, "closest_stop_name": "Hwy 101 & Phoebe St", "closest_stop_dist_m": "233", "source": "SANDAG" }, "geometry": { "type": "Point", "coordinates": [ -117.303730105656982, 33.071398949783621 ] } },
{ "type": "Feature", "properties": { "name": null, "type": "Child_Care_Centers", "programs": null, "address": null, "city": null, "tract_geoid": "06073002904", "total_population": 9700, "closest_stop_name": "College Av & Arosa St", "closest_stop_dist_m": "146", "source": "SANDAG" }, "geometry": { "type": "Point", "coordinates": [ -117.066145888767593, 32.763861884020095 ] } },
{ "type": "Feature", "properties": { "name": null, "type": "Child_Care_Centers", "programs": null, "address": null, "city": null, "tract_geoid": "06073017006", "total_population": 3028, "closest_stop_name": "Pomerado Rd & Stone Canyon Rd", "closest_stop_dist_m": "194", "source": "SANDAG" }, "geometry": { "type": "Point", "coordinates": [ -117.055781939805087, 33.005220522344167 ] } },
{ "type": "Feature", "properties": { "name": null, "type": "Child_Care_Centers", "programs": null, "address": null, "city": null, "tract_geoid": "06073008351", "total_population": 5122, "closest_stop_name": "Mira Mesa Bl & Reagan Rd (W)", "closest_stop_dist_m": "112", "source": "SANDAG" }, "geometry": { "type": "Point", "coordinates": [ -117.149618448610127, 32.911700809931581 ] } },
{ "type": "Feature", "properties": { "name": null, "type": "Child_Care_Centers", "programs": null, "address": null, "city": null, "tract_geoid": "06073008512", "total_population": 4137, "closest_stop_name": "Genesee Av & Boyd Av", "closest_stop_dist_m": "560", "source": "SANDAG" }, "geometry": { "type": "Point", "coordinates": [ -117.183579491524256, 32.809962440732178 ] } },
{ "type": "Feature", "properties": { "name": null, "type": "Child_Care_Centers", "programs": null, "address": null, "city": null, "tract_geoid": "06073008357", "total_population": 4619, "closest_stop_name": "Mira Mesa Bl & Westmore Rd", "closest_stop_dist_m": "104", "source": "SANDAG" }, "geometry": { "type": "Point", "coordinates": [ -117.130408480202647, 32.917009743615431 ] } },
{ "type": "Feature", "properties": { "name": null, "type": "Child_Care_Centers", "programs": null, "address": null, "city": null, "tract_geoid": "06073020806", "total_population": 5230, "closest_stop_name": "Main St & Montecito Rd", "closest_stop_dist_m": "282", "source": "SANDAG" }, "geometry": { "type": "Point", "coordinates": [ -116.875520986007999, 33.035046802288257 ] } },
{ "type": "Feature", "properties": { "name": null, "type": "Child_Care_Centers", "programs": null, "address": null, "city": null, "tract_geoid": "06073017901", "total_population": 3874, "closest_stop_name": "Harding St & Pine Av", "closest_stop_dist_m": "198", "source": "SANDAG" }, "geometry": { "type": "Point", "coordinates": [ -117.344723357293603, 33.158955842325113 ] } },
{ "type": "Feature", "properties": { "name": null, "type": "Child_Care_Centers", "programs": null, "address": null, "city": null, "tract_geoid": "06073017063", "total_population": 4257, "closest_stop_name": "West Bernardo Dr & Duenda Rd", "closest_stop_dist_m": "116", "source": "SANDAG" }, "geometry": { "type": "Point", "coordinates": [ -117.079979860906846, 33.033981233150243 ] } },
{ "type": "Feature", "properties": { "name": null, "type": "Child_Care_Centers", "programs": null, "address": null, "city": null, "tract_geoid": "06073019406", "total_population": 4648, "closest_stop_name": "W Vista Way & Melrose Dr", "closest_stop_dist_m": "528", "source": "SANDAG" }, "geometry": { "type": "Point", "coordinates": [ -117.256528369673504, 33.199700560339622 ] } },
{ "type": "Feature", "properties": { "name": null, "type": "Child_Care_Centers", "programs": null, "address": null, "city": null, "tract_geoid": "06073017021", "total_population": 3087, "closest_stop_name": "Espola Rd & Durhullen Dr", "closest_stop_dist_m": "74", "source": "SANDAG" }, "geometry": { "type": "Point", "coordinates": [ -117.022463261746395, 32.983869735088184 ] } },
{ "type": "Feature", "properties": { "name": null, "type": "Child_Care_Centers", "programs": null, "address": null, "city": null, "tract_geoid": "06073001802", "total_population": 3501, "closest_stop_name": "Adams Av & Hawley Bl", "closest_stop_dist_m": "106", "source": "SANDAG" }, "geometry": { "type": "Point", "coordinates": [ -117.118599398888264, 32.762644550083067 ] } },
{ "type": "Feature", "properties": { "name": null, "type": "Child_Care_Centers", "programs": null, "address": null, "city": null, "tract_geoid": "06073009805", "total_population": 4356, "closest_stop_name": "Jackson Dr & Twin Lake Dr", "closest_stop_dist_m": "1114", "source": "SANDAG" }, "geometry": { "type": "Point", "coordinates": [ -117.024845760949177, 32.805370211143625 ] } },
{ "type": "Feature", "properties": { "name": null, "type": "Child_Care_Centers", "programs": null, "address": null, "city": null, "tract_geoid": "06073017502", "total_population": 3545, "closest_stop_name": "Encinitas Blvd & Essex Heights", "closest_stop_dist_m": "210", "source": "SANDAG" }, "geometry": { "type": "Point", "coordinates": [ -117.284435774216007, 33.046130951907429 ] } },
{ "type": "Feature", "properties": { "name": null, "type": "Child_Care_Centers", "programs": null, "address": null, "city": null, "tract_geoid": "06073018801", "total_population": 3488, "closest_stop_name": "S Mission Rd & Big Oak Ranch Rd", "closest_stop_dist_m": "2119", "source": "SANDAG" }, "geometry": { "type": "Point", "coordinates": [ -117.218206044817904, 33.347992912576693 ] } },
{ "type": "Feature", "properties": { "name": null, "type": "Child_Care_Centers", "programs": null, "address": null, "city": null, "tract_geoid": "06073017022", "total_population": 5695, "closest_stop_name": "Willow Creek Rd & Business Park Av", "closest_stop_dist_m": "436", "source": "SANDAG" }, "geometry": { "type": "Point", "coordinates": [ -117.113693624664876, 32.898442766125335 ] } },
{ "type": "Feature", "properties": { "name": null, "type": "Child_Care_Centers", "programs": null, "address": null, "city": null, "tract_geoid": "06073008345", "total_population": 4138, "closest_stop_name": "Genesee Av & Hwy 52 (Ramp)", "closest_stop_dist_m": "1558", "source": "SANDAG" }, "geometry": { "type": "Point", "coordinates": [ -117.187171487729046, 32.853793574357134 ] } },
{ "type": "Feature", "properties": { "name": null, "type": "Child_Care_Centers", "programs": null, "address": null, "city": null, "tract_geoid": "06073017307", "total_population": 2282, "closest_stop_name": "Hwy 101 & Dahlia Dr", "closest_stop_dist_m": "233", "source": "SANDAG" }, "geometry": { "type": "Point", "coordinates": [ -117.268742877371523, 32.989307487030523 ] } },
{ "type": "Feature", "properties": { "name": null, "type": "Child_Care_Centers", "programs": null, "address": null, "city": null, "tract_geoid": "06073008503", "total_population": 7840, "closest_stop_name": "Clairemont Mesa Bl & Pocahontas Av", "closest_stop_dist_m": "277", "source": "SANDAG" }, "geometry": { "type": "Point", "coordinates": [ -117.209314075745823, 32.82519677957071 ] } },
{ "type": "Feature", "properties": { "name": null, "type": "Child_Care_Centers", "programs": null, "address": null, "city": null, "tract_geoid": "06073019601", "total_population": 6425, "closest_stop_name": "Eucalyptus & Avalon Dr", "closest_stop_dist_m": "223", "source": "SANDAG" }, "geometry": { "type": "Point", "coordinates": [ -117.235010049810313, 33.202135264598937 ] } },
{ "type": "Feature", "properties": { "name": null, "type": "Child_Care_Centers", "programs": null, "address": null, "city": null, "tract_geoid": "06073007200", "total_population": 5779, "closest_stop_name": "Point Loma Av & Sunset Cliffs Bl", "closest_stop_dist_m": "41", "source": "SANDAG" }, "geometry": { "type": "Point", "coordinates": [ -117.254816360522483, 32.735757769608803 ] } },
{ "type": "Feature", "properties": { "name": null, "type": "Child_Care_Centers", "programs": null, "address": null, "city": null, "tract_geoid": "06073020813", "total_population": 5898, "closest_stop_name": "Main St & 6th St", "closest_stop_dist_m": "1321", "source": "SANDAG" }, "geometry": { "type": "Point", "coordinates": [ -116.849827255963007, 33.039286211643962 ] } },
{ "type": "Feature", "properties": { "name": null, "type": "Child_Care_Centers", "programs": null, "address": null, "city": null, "tract_geoid": "06073009604", "total_population": 3532, "closest_stop_name": "Mission Gorge Rd & Twain Av", "closest_stop_dist_m": "145", "source": "SANDAG" }, "geometry": { "type": "Point", "coordinates": [ -117.096488143725907, 32.786279339834572 ] } },
{ "type": "Feature", "properties": { "name": null, "type": "Child_Care_Centers", "programs": null, "address": null, "city": null, "tract_geoid": "06073008313", "total_population": 2195, "closest_stop_name": "Villa La Jolla Dr & Gilman Dr", "closest_stop_dist_m": "896", "source": "SANDAG" }, "geometry": { "type": "Point", "coordinates": [ -117.2427864158239, 32.858686166373495 ] } },
{ "type": "Feature", "properties": { "name": null, "type": "Child_Care_Centers", "programs": null, "address": null, "city": null, "tract_geoid": "06073020813", "total_population": 5898, "closest_stop_name": "Main St & 8th St", "closest_stop_dist_m": "191", "source": "SANDAG" }, "geometry": { "type": "Point", "coordinates": [ -116.863846735155235, 33.042430331289836 ] } },
{ "type": "Feature", "properties": { "name": null, "type": "Child_Care_Centers", "programs": null, "address": null, "city": null, "tract_geoid": "06073017041", "total_population": 5565, "closest_stop_name": "Poway Rd & Tarascan Rd (Library Plaza)", "closest_stop_dist_m": "42", "source": "SANDAG" }, "geometry": { "type": "Point", "coordinates": [ -117.045357247842418, 32.957034966035238 ] } },
{ "type": "Feature", "properties": { "name": null, "type": "Child_Care_Centers", "programs": null, "address": null, "city": null, "tract_geoid": "06073009602", "total_population": 4016, "closest_stop_name": "Zion Av & 51st St", "closest_stop_dist_m": "51", "source": "SANDAG" }, "geometry": { "type": "Point", "coordinates": [ -117.082771852408897, 32.793399449026346 ] } },
{ "type": "Feature", "properties": { "name": null, "type": "Child_Care_Centers", "programs": null, "address": null, "city": null, "tract_geoid": "06073017033", "total_population": 5525, "closest_stop_name": "Carmel Mountain Rd & Paseo Cardiel", "closest_stop_dist_m": "1064", "source": "SANDAG" }, "geometry": { "type": "Point", "coordinates": [ -117.123160531448846, 32.966310581172962 ] } },
{ "type": "Feature", "properties": { "name": null, "type": "Child_Care_Centers", "programs": null, "address": null, "city": null, "tract_geoid": "06073009305", "total_population": 6104, "closest_stop_name": "Ruffin Rd & Mission Village Dr", "closest_stop_dist_m": "975", "source": "SANDAG" }, "geometry": { "type": "Point", "coordinates": [ -117.125685734434484, 32.793718681854671 ] } },
{ "type": "Feature", "properties": { "name": null, "type": "Child_Care_Centers", "programs": null, "address": null, "city": null, "tract_geoid": "06073018615", "total_population": 3150, "closest_stop_name": "Mission Av & San Diego St", "closest_stop_dist_m": "356", "source": "SANDAG" }, "geometry": { "type": "Point", "coordinates": [ -117.371280342260306, 33.20440812626827 ] } },
{ "type": "Feature", "properties": { "name": null, "type": "Child_Care_Centers", "programs": null, "address": null, "city": null, "tract_geoid": "06073020500", "total_population": 4261, "closest_stop_name": "Escondido Bl & 9th Av", "closest_stop_dist_m": "780", "source": "SANDAG" }, "geometry": { "type": "Point", "coordinates": [ -117.086182261634406, 33.109281231078725 ] } },
{ "type": "Feature", "properties": { "name": null, "type": "Child_Care_Centers", "programs": null, "address": null, "city": null, "tract_geoid": "06073020025", "total_population": 5250, "closest_stop_name": "Mission Rd & Avenida Chapala", "closest_stop_dist_m": "332", "source": "SANDAG" }, "geometry": { "type": "Point", "coordinates": [ -117.133950075579236, 33.138749024775272 ] } },
{ "type": "Feature", "properties": { "name": null, "type": "Child_Care_Centers", "programs": null, "address": null, "city": null, "tract_geoid": "06073019110", "total_population": 4999, "closest_stop_name": "Valley Center Rd & N Paradise Creek Ln", "closest_stop_dist_m": "360", "source": "SANDAG" }, "geometry": { "type": "Point", "coordinates": [ -116.955511077842942, 33.259656853208362 ] } },
{ "type": "Feature", "properties": { "name": null, "type": "Child_Care_Centers", "programs": null, "address": null, "city": null, "tract_geoid": "06073008510", "total_population": 5814, "closest_stop_name": "Mesa College Dr & Armstrong Pl", "closest_stop_dist_m": "37", "source": "SANDAG" }, "geometry": { "type": "Point", "coordinates": [ -117.164030842988836, 32.80348512173147 ] } },
{ "type": "Feature", "properties": { "name": null, "type": "Child_Care_Centers", "programs": null, "address": null, "city": null, "tract_geoid": "06073008358", "total_population": 5836, "closest_stop_name": "Black Mountain Rd & Miramar College Drwy", "closest_stop_dist_m": "181", "source": "SANDAG" }, "geometry": { "type": "Point", "coordinates": [ -117.12444747080788, 32.908082708438926 ] } },
{ "type": "Feature", "properties": { "name": null, "type": "Child_Care_Centers", "programs": null, "address": null, "city": null, "tract_geoid": "06073019501", "total_population": 3250, "closest_stop_name": "Olive Av & Plymouth Dr", "closest_stop_dist_m": "209", "source": "SANDAG" }, "geometry": { "type": "Point", "coordinates": [ -117.250286773557406, 33.206631821317423 ] } },
{ "type": "Feature", "properties": { "name": null, "type": "Child_Care_Centers", "programs": null, "address": null, "city": null, "tract_geoid": "06073008378", "total_population": 843, "closest_stop_name": "Executive Drive Station", "closest_stop_dist_m": "334", "source": "SANDAG" }, "geometry": { "type": "Point", "coordinates": [ -117.217337241697876, 32.875282106121823 ] } },
{ "type": "Feature", "properties": { "name": null, "type": "Child_Care_Centers", "programs": null, "address": null, "city": null, "tract_geoid": "06073008358", "total_population": 5836, "closest_stop_name": "Black Mountain Rd & Hillery Dr", "closest_stop_dist_m": "65", "source": "SANDAG" }, "geometry": { "type": "Point", "coordinates": [ -117.125128490773761, 32.912659697281264 ] } },
{ "type": "Feature", "properties": { "name": null, "type": "Child_Care_Centers", "programs": null, "address": null, "city": null, "tract_geoid": "06073008303", "total_population": 3055, "closest_stop_name": "Torrey Pines Rd & Calle De La Plata", "closest_stop_dist_m": "237", "source": "SANDAG" }, "geometry": { "type": "Point", "coordinates": [ -117.253570507943564, 32.849941076497331 ] } },
{ "type": "Feature", "properties": { "name": null, "type": "Child_Care_Centers", "programs": null, "address": null, "city": null, "tract_geoid": "06073008346", "total_population": 4307, "closest_stop_name": "Lusk Blvd & Vista Sorrento Pkwy", "closest_stop_dist_m": "518", "source": "SANDAG" }, "geometry": { "type": "Point", "coordinates": [ -117.21914848462788, 32.903762925993817 ] } },
{ "type": "Feature", "properties": { "name": null, "type": "Child_Care_Centers", "programs": null, "address": null, "city": null, "tract_geoid": "06073018905", "total_population": 6182, "closest_stop_name": "Main Av & Fallbrook St", "closest_stop_dist_m": "319", "source": "SANDAG" }, "geometry": { "type": "Point", "coordinates": [ -117.24793971311388, 33.376059293846737 ] } },
{ "type": "Feature", "properties": { "name": null, "type": "Child_Care_Centers", "programs": null, "address": null, "city": null, "tract_geoid": "06073008512", "total_population": 4137, "closest_stop_name": "Balboa Av & Mt Everest Bl", "closest_stop_dist_m": "914", "source": "SANDAG" }, "geometry": { "type": "Point", "coordinates": [ -117.189053113211898, 32.810278361543951 ] } },
{ "type": "Feature", "properties": { "name": null, "type": "Child_Care_Centers", "programs": null, "address": null, "city": null, "tract_geoid": "06073020035", "total_population": 6480, "closest_stop_name": "Rancho Santa Fe Rd & La Costa Av", "closest_stop_dist_m": "230", "source": "SANDAG" }, "geometry": { "type": "Point", "coordinates": [ -117.239239943333004, 33.079658040931101 ] } },
{ "type": "Feature", "properties": { "name": null, "type": "Child_Care_Centers", "programs": null, "address": null, "city": null, "tract_geoid": "06073008344", "total_population": 3350, "closest_stop_name": "Genesee Av & Governor Dr", "closest_stop_dist_m": "192", "source": "SANDAG" }, "geometry": { "type": "Point", "coordinates": [ -117.202439318193527, 32.854815089869398 ] } },
{ "type": "Feature", "properties": { "name": null, "type": "Child_Care_Centers", "programs": null, "address": null, "city": null, "tract_geoid": "06073018904", "total_population": 6860, "closest_stop_name": "Alvarado St & 388", "closest_stop_dist_m": "211", "source": "SANDAG" }, "geometry": { "type": "Point", "coordinates": [ -117.248378774973887, 33.384028942998199 ] } },
{ "type": "Feature", "properties": { "name": null, "type": "Child_Care_Centers", "programs": null, "address": null, "city": null, "tract_geoid": "06073017035", "total_population": 3396, "closest_stop_name": "Carmel Mountain Rd & Penasquitos Dr", "closest_stop_dist_m": "211", "source": "SANDAG" }, "geometry": { "type": "Point", "coordinates": [ -117.092633695601293, 32.978135137245424 ] } },
{ "type": "Feature", "properties": { "name": null, "type": "Child_Care_Centers", "programs": null, "address": null, "city": null, "tract_geoid": "06073020214", "total_population": 4643, "closest_stop_name": "Broadway & Washington Av", "closest_stop_dist_m": "138", "source": "SANDAG" }, "geometry": { "type": "Point", "coordinates": [ -117.083951446301299, 33.125264850712867 ] } },
{ "type": "Feature", "properties": { "name": null, "type": "Child_Care_Centers", "programs": null, "address": null, "city": null, "tract_geoid": "06073021401", "total_population": 4176, "closest_stop_name": "Chatsworth Bl & Nimitz Bl", "closest_stop_dist_m": "58", "source": "SANDAG" }, "geometry": { "type": "Point", "coordinates": [ -117.230165613216101, 32.737240389867324 ] } },
{ "type": "Feature", "properties": { "name": null, "type": "Child_Care_Centers", "programs": null, "address": null, "city": null, "tract_geoid": "06073017022", "total_population": 5695, "closest_stop_name": "Scripps Ranch Bl & Scripps Ranch Ct", "closest_stop_dist_m": "1065", "source": "SANDAG" }, "geometry": { "type": "Point", "coordinates": [ -117.098473413505303, 32.909464401175377 ] } },
{ "type": "Feature", "properties": { "name": null, "type": "Child_Care_Centers", "programs": null, "address": null, "city": null, "tract_geoid": "06073009505", "total_population": 6286, "closest_stop_name": "La Cuenta Dr & Lamentin Ct", "closest_stop_dist_m": "1008", "source": "SANDAG" }, "geometry": { "type": "Point", "coordinates": [ -117.086246091674838, 32.830384772343045 ] } },
{ "type": "Feature", "properties": { "name": null, "type": "Child_Care_Centers", "programs": null, "address": null, "city": null, "tract_geoid": "06073021401", "total_population": 4176, "closest_stop_name": "Chatsworth Bl & Nimitz Bl", "closest_stop_dist_m": "46", "source": "SANDAG" }, "geometry": { "type": "Point", "coordinates": [ -117.230245392737018, 32.737148028392959 ] } },
{ "type": "Feature", "properties": { "name": null, "type": "Child_Care_Centers", "programs": null, "address": null, "city": null, "tract_geoid": "06073008352", "total_population": 3738, "closest_stop_name": "Kelowna Rd & Capricorn Wy", "closest_stop_dist_m": "490", "source": "SANDAG" }, "geometry": { "type": "Point", "coordinates": [ -117.135915215501754, 32.924567267964818 ] } },
{ "type": "Feature", "properties": { "name": null, "type": "Child_Care_Centers", "programs": null, "address": null, "city": null, "tract_geoid": "06073017603", "total_population": 3005, "closest_stop_name": "Saxony Rd & Saxony Ln", "closest_stop_dist_m": "96", "source": "SANDAG" }, "geometry": { "type": "Point", "coordinates": [ -117.28666912945198, 33.05228342971494 ] } },
{ "type": "Feature", "properties": { "name": null, "type": "Child_Care_Centers", "programs": null, "address": null, "city": null, "tract_geoid": "06073017022", "total_population": 5695, "closest_stop_name": "Willow Creek Rd & Aviary Dr", "closest_stop_dist_m": "464", "source": "SANDAG" }, "geometry": { "type": "Point", "coordinates": [ -117.101404883782223, 32.901505448161664 ] } },
{ "type": "Feature", "properties": { "name": null, "type": "Child_Care_Centers", "programs": null, "address": null, "city": null, "tract_geoid": "06073019503", "total_population": 5372, "closest_stop_name": "W Vista Way & Valencia Dr", "closest_stop_dist_m": "87", "source": "SANDAG" }, "geometry": { "type": "Point", "coordinates": [ -117.252498335697922, 33.19690692887 ] } },
{ "type": "Feature", "properties": { "name": null, "type": "Child_Care_Centers", "programs": null, "address": null, "city": null, "tract_geoid": "06073017009", "total_population": 4079, "closest_stop_name": "Midland Rd & Summerlyn Apts", "closest_stop_dist_m": "1170", "source": "SANDAG" }, "geometry": { "type": "Point", "coordinates": [ -117.023819835347425, 32.95843044010681 ] } },
{ "type": "Feature", "properties": { "name": null, "type": "Child_Care_Centers", "programs": null, "address": null, "city": null, "tract_geoid": "06073017055", "total_population": 4958, "closest_stop_name": "Carmel Mountain Rd & Highland Ranch Rd", "closest_stop_dist_m": "226", "source": "SANDAG" }, "geometry": { "type": "Point", "coordinates": [ -117.073328206125481, 32.983541499033272 ] } },
{ "type": "Feature", "properties": { "name": null, "type": "Child_Care_Centers", "programs": null, "address": null, "city": null, "tract_geoid": "06073007912", "total_population": 1738, "closest_stop_name": "Garnet Av & Fanuel St", "closest_stop_dist_m": "147", "source": "SANDAG" }, "geometry": { "type": "Point", "coordinates": [ -117.245564218903155, 32.800022837757119 ] } },
{ "type": "Feature", "properties": { "name": null, "type": "Child_Care_Centers", "programs": null, "address": null, "city": null, "tract_geoid": "06073008507", "total_population": 6606, "closest_stop_name": "Clairemont Mesa Bl & Doliva Dr", "closest_stop_dist_m": "719", "source": "SANDAG" }, "geometry": { "type": "Point", "coordinates": [ -117.172459783217604, 32.828141174812913 ] } },
{ "type": "Feature", "properties": { "name": null, "type": "Child_Care_Centers", "programs": null, "address": null, "city": null, "tract_geoid": "06073017071", "total_population": 5229, "closest_stop_name": "Camino Del Norte & Paseo Montanoso", "closest_stop_dist_m": "101", "source": "SANDAG" }, "geometry": { "type": "Point", "coordinates": [ -117.087557856452761, 33.000074279053621 ] } },
{ "type": "Feature", "properties": { "name": null, "type": "Child_Care_Centers", "programs": null, "address": null, "city": null, "tract_geoid": "06073017022", "total_population": 5695, "closest_stop_name": "Scripps Ranch Bl & Scripps Lake Dr", "closest_stop_dist_m": "339", "source": "SANDAG" }, "geometry": { "type": "Point", "coordinates": [ -117.113564984959922, 32.911527414250592 ] } },
{ "type": "Feature", "properties": { "name": null, "type": "Child_Care_Centers", "programs": null, "address": null, "city": null, "tract_geoid": "06073017054", "total_population": 5849, "closest_stop_name": "Pomerado Rd & Bernardo Heights Pkwy", "closest_stop_dist_m": "89", "source": "SANDAG" }, "geometry": { "type": "Point", "coordinates": [ -117.057333578962599, 33.002330021539215 ] } },
{ "type": "Feature", "properties": { "name": null, "type": "Child_Care_Centers", "programs": null, "address": null, "city": null, "tract_geoid": "06073018608", "total_population": 3223, "closest_stop_name": "Douglas Dr & Catalina Dr", "closest_stop_dist_m": "60", "source": "SANDAG" }, "geometry": { "type": "Point", "coordinates": [ -117.314327890911841, 33.25620507627864 ] } },
{ "type": "Feature", "properties": { "name": null, "type": "Child_Care_Centers", "programs": null, "address": null, "city": null, "tract_geoid": "06073009301", "total_population": 5084, "closest_stop_name": "Gramercy Dr & Pasternack Pl", "closest_stop_dist_m": "208", "source": "SANDAG" }, "geometry": { "type": "Point", "coordinates": [ -117.134090470517265, 32.804286239475601 ] } },
{ "type": "Feature", "properties": { "name": null, "type": "Child_Care_Centers", "programs": null, "address": null, "city": null, "tract_geoid": "06073020813", "total_population": 5898, "closest_stop_name": "Main St & 10th St", "closest_stop_dist_m": "526", "source": "SANDAG" }, "geometry": { "type": "Point", "coordinates": [ -116.864174438771244, 33.038738152053035 ] } },
{ "type": "Feature", "properties": { "name": null, "type": "Child_Care_Centers", "programs": null, "address": null, "city": null, "tract_geoid": "06073009706", "total_population": 7127, "closest_stop_name": "Navajo Rd & College Av", "closest_stop_dist_m": "157", "source": "SANDAG" }, "geometry": { "type": "Point", "coordinates": [ -117.065414734329778, 32.794594785728847 ] } },
{ "type": "Feature", "properties": { "name": null, "type": "Child_Care_Centers", "programs": null, "address": null, "city": null, "tract_geoid": "06073020110", "total_population": 9085, "closest_stop_name": "Citrus Av", "closest_stop_dist_m": "400", "source": "SANDAG" }, "geometry": { "type": "Point", "coordinates": [ -117.047785673251639, 33.147002705258757 ] } },
{ "type": "Feature", "properties": { "name": null, "type": "Child_Care_Centers", "programs": null, "address": null, "city": null, "tract_geoid": "06073018523", "total_population": 5210, "closest_stop_name": "Rancho Del Oro Dr & Hwy 76", "closest_stop_dist_m": "117", "source": "SANDAG" }, "geometry": { "type": "Point", "coordinates": [ -117.317647428998143, 33.229699055424703 ] } },
{ "type": "Feature", "properties": { "name": null, "type": "Child_Care_Centers", "programs": null, "address": null, "city": null, "tract_geoid": "06073017502", "total_population": 3545, "closest_stop_name": "Encinitas Bl & Balour Dr", "closest_stop_dist_m": "447", "source": "SANDAG" }, "geometry": { "type": "Point", "coordinates": [ -117.269050536803675, 33.041152447877629 ] } },
{ "type": "Feature", "properties": { "name": null, "type": "Child_Care_Centers", "programs": null, "address": null, "city": null, "tract_geoid": "06073017054", "total_population": 5849, "closest_stop_name": "Pomerado Rd & Monte Vista Rd", "closest_stop_dist_m": "173", "source": "SANDAG" }, "geometry": { "type": "Point", "coordinates": [ -117.05595500667296, 32.994775524955664 ] } },
{ "type": "Feature", "properties": { "name": null, "type": "Child_Care_Centers", "programs": null, "address": null, "city": null, "tract_geoid": "06073008347", "total_population": 6604, "closest_stop_name": "Camino Ruiz & Teresa Dr", "closest_stop_dist_m": "435", "source": "SANDAG" }, "geometry": { "type": "Point", "coordinates": [ -117.148441888107399, 32.926033738118541 ] } },
{ "type": "Feature", "properties": { "name": null, "type": "Child_Care_Centers", "programs": null, "address": null, "city": null, "tract_geoid": "06073018517", "total_population": 3804, "closest_stop_name": "MiraCosta College", "closest_stop_dist_m": "159", "source": "SANDAG" }, "geometry": { "type": "Point", "coordinates": [ -117.301813332229116, 33.191472858326861 ] } },
{ "type": "Feature", "properties": { "name": null, "type": "Child_Care_Centers", "programs": null, "address": null, "city": null, "tract_geoid": "06073017031", "total_population": 3522, "closest_stop_name": "West Bernardo Dr & Matrinal Rd", "closest_stop_dist_m": "20", "source": "SANDAG" }, "geometry": { "type": "Point", "coordinates": [ -117.082274607184118, 33.02980770722867 ] } },
{ "type": "Feature", "properties": { "name": null, "type": "Child_Care_Centers", "programs": null, "address": null, "city": null, "tract_geoid": "06073009705", "total_population": 3868, "closest_stop_name": "College Av & Del Cerro Bl", "closest_stop_dist_m": "136", "source": "SANDAG" }, "geometry": { "type": "Point", "coordinates": [ -117.062940953118314, 32.782712823859924 ] } },
{ "type": "Feature", "properties": { "name": null, "type": "Child_Care_Centers", "programs": null, "address": null, "city": null, "tract_geoid": "06073020500", "total_population": 4261, "closest_stop_name": "Escondido Bl & 13th Av", "closest_stop_dist_m": "503", "source": "SANDAG" }, "geometry": { "type": "Point", "coordinates": [ -117.081081493210959, 33.106964658914656 ] } },
{ "type": "Feature", "properties": { "name": null, "type": "Child_Care_Centers", "programs": null, "address": null, "city": null, "tract_geoid": "06073018516", "total_population": 3860, "closest_stop_name": "Oceanside Blvd & Corporate Centre Dr", "closest_stop_dist_m": "383", "source": "SANDAG" }, "geometry": { "type": "Point", "coordinates": [ -117.305954823752501, 33.200232621365778 ] } },
{ "type": "Feature", "properties": { "name": null, "type": "Child_Care_Centers", "programs": null, "address": null, "city": null, "tract_geoid": "06073018904", "total_population": 6860, "closest_stop_name": "S Mission Rd & Fallbrook St", "closest_stop_dist_m": "183", "source": "SANDAG" }, "geometry": { "type": "Point", "coordinates": [ -117.254878178748527, 33.376901188436641 ] } },
{ "type": "Feature", "properties": { "name": null, "type": "Child_Care_Centers", "programs": null, "address": null, "city": null, "tract_geoid": "06073008349", "total_population": 3539, "closest_stop_name": "Mira Mesa Bl & Reagan Rd", "closest_stop_dist_m": "279", "source": "SANDAG" }, "geometry": { "type": "Point", "coordinates": [ -117.149028467299203, 32.915225480186294 ] } },
{ "type": "Feature", "properties": { "name": null, "type": "Child_Care_Centers", "programs": null, "address": null, "city": null, "tract_geoid": "06073018201", "total_population": 3025, "closest_stop_name": "Coast Hwy & Wisconsin Av", "closest_stop_dist_m": "167", "source": "SANDAG" }, "geometry": { "type": "Point", "coordinates": [ -117.371612654724501, 33.188744923818916 ] } },
{ "type": "Feature", "properties": { "name": null, "type": "Child_Care_Centers", "programs": null, "address": null, "city": null, "tract_geoid": "06073008305", "total_population": 11134, "closest_stop_name": "Regents Rd & Health Sciences Dr", "closest_stop_dist_m": "211", "source": "SANDAG" }, "geometry": { "type": "Point", "coordinates": [ -117.216289148716058, 32.878521620788931 ] } },
{ "type": "Feature", "properties": { "name": null, "type": "Child_Care_Centers", "programs": null, "address": null, "city": null, "tract_geoid": "06073020708", "total_population": 3817, "closest_stop_name": "Bear Valley Pkwy & Las Palmas Av", "closest_stop_dist_m": "229", "source": "SANDAG" }, "geometry": { "type": "Point", "coordinates": [ -117.059634768466964, 33.085120387795754 ] } },
{ "type": "Feature", "properties": { "name": null, "type": "Child_Care_Centers", "programs": null, "address": null, "city": null, "tract_geoid": "06073008305", "total_population": 11134, "closest_stop_name": "La Jolla Village Dr & Regents Rd", "closest_stop_dist_m": "232", "source": "SANDAG" }, "geometry": { "type": "Point", "coordinates": [ -117.218558786455816, 32.873587250502098 ] } },
{ "type": "Feature", "properties": { "name": null, "type": "Child_Care_Centers", "programs": null, "address": null, "city": null, "tract_geoid": "06073017048", "total_population": 6422, "closest_stop_name": "Poway Rd & Bowron Road", "closest_stop_dist_m": "267", "source": "SANDAG" }, "geometry": { "type": "Point", "coordinates": [ -117.045463090025336, 32.953964271887635 ] } },
{ "type": "Feature", "properties": { "name": null, "type": "Child_Care_Centers", "programs": null, "address": null, "city": null, "tract_geoid": "06073020108", "total_population": 4731, "closest_stop_name": "Broadway & Lincoln Av", "closest_stop_dist_m": "68", "source": "SANDAG" }, "geometry": { "type": "Point", "coordinates": [ -117.087497421612341, 33.134606603569949 ] } },
{ "type": "Feature", "properties": { "name": null, "type": "Child_Care_Centers", "programs": null, "address": null, "city": null, "tract_geoid": "06073020601", "total_population": 6208, "closest_stop_name": "2nd Av & Broadway", "closest_stop_dist_m": "218", "source": "SANDAG" }, "geometry": { "type": "Point", "coordinates": [ -117.08021171111794, 33.118871574870141 ] } },
{ "type": "Feature", "properties": { "name": null, "type": "Child_Care_Centers", "programs": null, "address": null, "city": null, "tract_geoid": "06073020403", "total_population": 4089, "closest_stop_name": "Sunset Dr & Escondido Bl", "closest_stop_dist_m": "978", "source": "SANDAG" }, "geometry": { "type": "Point", "coordinates": [ -117.079135340610961, 33.096578484368095 ] } },
{ "type": "Feature", "properties": { "name": null, "type": "Child_Care_Centers", "programs": null, "address": null, "city": null, "tract_geoid": "06073001802", "total_population": 3501, "closest_stop_name": "Adams Av & 34th St", "closest_stop_dist_m": "188", "source": "SANDAG" }, "geometry": { "type": "Point", "coordinates": [ -117.121474837822078, 32.761942417980194 ] } },
{ "type": "Feature", "properties": { "name": null, "type": "Child_Care_Centers", "programs": null, "address": null, "city": null, "tract_geoid": "06073020903", "total_population": 2895, "closest_stop_name": "S2 (San Felipe Rd) & S22 (Montezuma Valley Rd)", "closest_stop_dist_m": "7065", "source": "SANDAG" }, "geometry": { "type": "Point", "coordinates": [ -116.655865445072138, 33.267074831184658 ] } },
{ "type": "Feature", "properties": { "name": null, "type": "Child_Care_Centers", "programs": null, "address": null, "city": null, "tract_geoid": "06073019305", "total_population": 4203, "closest_stop_name": "Oceanside Blvd & 4927", "closest_stop_dist_m": "143", "source": "SANDAG" }, "geometry": { "type": "Point", "coordinates": [ -117.267509925441985, 33.219613447812876 ] } },
{ "type": "Feature", "properties": { "name": null, "type": "Child_Care_Centers", "programs": null, "address": null, "city": null, "tract_geoid": "06073008355", "total_population": 3065, "closest_stop_name": "Westview Pkwy & Mira Mesa MarketCenter", "closest_stop_dist_m": "583", "source": "SANDAG" }, "geometry": { "type": "Point", "coordinates": [ -117.120874520114114, 32.920681044420846 ] } },
{ "type": "Feature", "properties": { "name": null, "type": "Child_Care_Centers", "programs": null, "address": null, "city": null, "tract_geoid": "06073020711", "total_population": 3604, "closest_stop_name": "Valley Center Rd & Lake Wohlford Rd", "closest_stop_dist_m": "132", "source": "SANDAG" }, "geometry": { "type": "Point", "coordinates": [ -117.029407527131113, 33.159685933069902 ] } },
{ "type": "Feature", "properties": { "name": null, "type": "Child_Care_Centers", "programs": null, "address": null, "city": null, "tract_geoid": "06073017047", "total_population": 4260, "closest_stop_name": "Alliant University", "closest_stop_dist_m": "2366", "source": "SANDAG" }, "geometry": { "type": "Point", "coordinates": [ -117.080860066688359, 32.912575582469579 ] } },
{ "type": "Feature", "properties": { "name": null, "type": "Child_Care_Centers", "programs": null, "address": null, "city": null, "tract_geoid": "06073007302", "total_population": 2610, "closest_stop_name": "Canon St & Del Mar Av", "closest_stop_dist_m": "697", "source": "SANDAG" }, "geometry": { "type": "Point", "coordinates": [ -117.244199744737159, 32.732872731737402 ] } },
{ "type": "Feature", "properties": { "name": null, "type": "Child_Care_Centers", "programs": null, "address": null, "city": null, "tract_geoid": "06073017403", "total_population": 4730, "closest_stop_name": "Santa Fe Dr & Monterey Vista Way", "closest_stop_dist_m": "447", "source": "SANDAG" }, "geometry": { "type": "Point", "coordinates": [ -117.267755182604944, 33.04036193954186 ] } },
{ "type": "Feature", "properties": { "name": null, "type": "Child_Care_Centers", "programs": null, "address": null, "city": null, "tract_geoid": "06073008339", "total_population": 1824, "closest_stop_name": "N Torrey Pines Rd & Scripps Clinic Drwy", "closest_stop_dist_m": "79", "source": "SANDAG" }, "geometry": { "type": "Point", "coordinates": [ -117.240353573718664, 32.895607338072075 ] } },
{ "type": "Feature", "properties": { "name": null, "type": "Child_Care_Centers", "programs": null, "address": null, "city": null, "tract_geoid": "06073008339", "total_population": 1824, "closest_stop_name": "N Torrey Pines Rd & Scripps Clinic Drwy", "closest_stop_dist_m": "79", "source": "SANDAG" }, "geometry": { "type": "Point", "coordinates": [ -117.240294073500806, 32.895490105202263 ] } },
{ "type": "Feature", "properties": { "name": null, "type": "Child_Care_Centers", "programs": null, "address": null, "city": null, "tract_geoid": "06073019601", "total_population": 6425, "closest_stop_name": "Williamston St & Vale Terrace Dr", "closest_stop_dist_m": "88", "source": "SANDAG" }, "geometry": { "type": "Point", "coordinates": [ -117.230191792983902, 33.209388865341708 ] } },
{ "type": "Feature", "properties": { "name": null, "type": "Child_Care_Centers", "programs": null, "address": null, "city": null, "tract_geoid": "06073008343", "total_population": 4086, "closest_stop_name": "Regents Rd & Nobel Dr", "closest_stop_dist_m": "277", "source": "SANDAG" }, "geometry": { "type": "Point", "coordinates": [ -117.221004081083834, 32.865151875796428 ] } },
{ "type": "Feature", "properties": { "name": null, "type": "Child_Care_Centers", "programs": null, "address": null, "city": null, "tract_geoid": "06073018618", "total_population": 3946, "closest_stop_name": "N River Rd & College Blvd", "closest_stop_dist_m": "501", "source": "SANDAG" }, "geometry": { "type": "Point", "coordinates": [ -117.305130791391676, 33.252547362618216 ] } },
{ "type": "Feature", "properties": { "name": null, "type": "Child_Care_Centers", "programs": null, "address": null, "city": null, "tract_geoid": "06073001400", "total_population": 3285, "closest_stop_name": "30th St & North Park Wy", "closest_stop_dist_m": "52", "source": "SANDAG" }, "geometry": { "type": "Point", "coordinates": [ -117.130677666554178, 32.747112511675176 ] } },
{ "type": "Feature", "properties": { "name": null, "type": "Child_Care_Centers", "programs": null, "address": null, "city": null, "tract_geoid": "06073018522", "total_population": 5332, "closest_stop_name": "Avenida De La Plata & College Blvd", "closest_stop_dist_m": "72", "source": "SANDAG" }, "geometry": { "type": "Point", "coordinates": [ -117.287995978666245, 33.213128020269956 ] } },
{ "type": "Feature", "properties": { "name": null, "type": "Child_Care_Centers", "programs": null, "address": null, "city": null, "tract_geoid": "06073020214", "total_population": 4643, "closest_stop_name": "Escondido Blvd & Lincoln Av", "closest_stop_dist_m": "193", "source": "SANDAG" }, "geometry": { "type": "Point", "coordinates": [ -117.088594513947385, 33.13103510621621 ] } },
{ "type": "Feature", "properties": { "name": null, "type": "Child_Care_Centers", "programs": null, "address": null, "city": null, "tract_geoid": "06073020707", "total_population": 5273, "closest_stop_name": "Escondido Bl & Felicita Av", "closest_stop_dist_m": "163", "source": "SANDAG" }, "geometry": { "type": "Point", "coordinates": [ -117.072214035286976, 33.104128134177408 ] } },
{ "type": "Feature", "properties": { "name": null, "type": "Child_Care_Centers", "programs": null, "address": null, "city": null, "tract_geoid": "06073019111", "total_population": 3678, "closest_stop_name": "Valley Center Rd & Cole Grade Rd", "closest_stop_dist_m": "75", "source": "SANDAG" }, "geometry": { "type": "Point", "coordinates": [ -117.022819850623435, 33.230859897105546 ] } },
{ "type": "Feature", "properties": { "name": null, "type": "Child_Care_Centers", "programs": null, "address": null, "city": null, "tract_geoid": "06073020029", "total_population": 7007, "closest_stop_name": "Rancho Santa Fe Rd & Linda Vista Dr", "closest_stop_dist_m": "229", "source": "SANDAG" }, "geometry": { "type": "Point", "coordinates": [ -117.201073412671434, 33.139234710132747 ] } },
{ "type": "Feature", "properties": { "name": null, "type": "Child_Care_Centers", "programs": null, "address": null, "city": null, "tract_geoid": "06073018617", "total_population": 3519, "closest_stop_name": "San Luis Rey Transit Center  Stall 2", "closest_stop_dist_m": "231", "source": "SANDAG" }, "geometry": { "type": "Point", "coordinates": [ -117.300565349840241, 33.255708035296664 ] } },
{ "type": "Feature", "properties": { "name": null, "type": "Child_Care_Centers", "programs": null, "address": null, "city": null, "tract_geoid": "06073018520", "total_population": 5213, "closest_stop_name": "College Blvd & Via Cupeno", "closest_stop_dist_m": "287", "source": "SANDAG" }, "geometry": { "type": "Point", "coordinates": [ -117.293773094651996, 33.245471513329704 ] } },
{ "type": "Feature", "properties": { "name": null, "type": "Child_Care_Centers", "programs": null, "address": null, "city": null, "tract_geoid": "06073020712", "total_population": 3987, "closest_stop_name": "Glenridge Rd & Vulcan Pl", "closest_stop_dist_m": "147", "source": "SANDAG" }, "geometry": { "type": "Point", "coordinates": [ -117.037840608770338, 33.129737774506353 ] } },
{ "type": "Feature", "properties": { "name": null, "type": "Child_Care_Centers", "programs": null, "address": null, "city": null, "tract_geoid": "06073020305", "total_population": 6432, "closest_stop_name": "Country Club Ln & Nutmeg St", "closest_stop_dist_m": "62", "source": "SANDAG" }, "geometry": { "type": "Point", "coordinates": [ -117.108784715846198, 33.156570429153192 ] } },
{ "type": "Feature", "properties": { "name": null, "type": "Child_Care_Centers", "programs": null, "address": null, "city": null, "tract_geoid": "06073020313", "total_population": 2675, "closest_stop_name": "Mission Av & Quince St", "closest_stop_dist_m": "134", "source": "SANDAG" }, "geometry": { "type": "Point", "coordinates": [ -117.095123028956422, 33.127065472914353 ] } },
{ "type": "Feature", "properties": { "name": null, "type": "Child_Care_Centers", "programs": null, "address": null, "city": null, "tract_geoid": "06073020705", "total_population": 4879, "closest_stop_name": "Sunset Dr & Escondido Bl", "closest_stop_dist_m": "1090", "source": "SANDAG" }, "geometry": { "type": "Point", "coordinates": [ -117.0604667474027, 33.10662415091447 ] } },
{ "type": "Feature", "properties": { "name": null, "type": "Child_Care_Centers", "programs": null, "address": null, "city": null, "tract_geoid": "06073020040", "total_population": 4333, "closest_stop_name": "Mission Rd & Woodward St", "closest_stop_dist_m": "230", "source": "SANDAG" }, "geometry": { "type": "Point", "coordinates": [ -117.160747722839474, 33.144470682777865 ] } },
{ "type": "Feature", "properties": { "name": null, "type": "Child_Care_Centers", "programs": null, "address": null, "city": null, "tract_geoid": "06073016616", "total_population": 3568, "closest_stop_name": "Mission Gorge Rd & Fanita Dr", "closest_stop_dist_m": "906", "source": "SANDAG" }, "geometry": { "type": "Point", "coordinates": [ -117.000390636896057, 32.830561355662141 ] } },
{ "type": "Feature", "properties": { "name": null, "type": "Child_Care_Centers", "programs": null, "address": null, "city": null, "tract_geoid": "06073002804", "total_population": 6071, "closest_stop_name": "El Cajon Bl & 56th St", "closest_stop_dist_m": "152", "source": "SANDAG" }, "geometry": { "type": "Point", "coordinates": [ -117.074629455187093, 32.75985827848789 ] } },
{ "type": "Feature", "properties": { "name": null, "type": "Child_Care_Centers", "programs": null, "address": null, "city": null, "tract_geoid": "06073020030", "total_population": 8033, "closest_stop_name": "El Camino Real & Town Garden Rd", "closest_stop_dist_m": "128", "source": "SANDAG" }, "geometry": { "type": "Point", "coordinates": [ -117.266366081734617, 33.12168755053883 ] } },
{ "type": "Feature", "properties": { "name": null, "type": "Child_Care_Centers", "programs": null, "address": null, "city": null, "tract_geoid": "06073008511", "total_population": 5607, "closest_stop_name": "Balboa Av & Viewridge Av", "closest_stop_dist_m": "535", "source": "SANDAG" }, "geometry": { "type": "Point", "coordinates": [ -117.120430311753836, 32.825205879958602 ] } },
{ "type": "Feature", "properties": { "name": null, "type": "Child_Care_Centers", "programs": null, "address": null, "city": null, "tract_geoid": "06073008313", "total_population": 2195, "closest_stop_name": "Gilman Dr & Villa La Jolla Dr", "closest_stop_dist_m": "282", "source": "SANDAG" }, "geometry": { "type": "Point", "coordinates": [ -117.239175108569455, 32.864936930429089 ] } },
{ "type": "Feature", "properties": { "name": null, "type": "Child_Care_Centers", "programs": null, "address": null, "city": null, "tract_geoid": "06073016301", "total_population": 5120, "closest_stop_name": "Madison Av & Mollison Av", "closest_stop_dist_m": "23", "source": "SANDAG" }, "geometry": { "type": "Point", "coordinates": [ -116.951495717047806, 32.800556745080307 ] } },
{ "type": "Feature", "properties": { "name": null, "type": "Child_Care_Centers", "programs": null, "address": null, "city": null, "tract_geoid": "06073008339", "total_population": 1824, "closest_stop_name": "N Torrey Pines Rd & NU System Drwy", "closest_stop_dist_m": "1057", "source": "SANDAG" }, "geometry": { "type": "Point", "coordinates": [ -117.234473920283193, 32.91519865977908 ] } },
{ "type": "Feature", "properties": { "name": null, "type": "Child_Care_Centers", "programs": null, "address": null, "city": null, "tract_geoid": "06073016401", "total_population": 5194, "closest_stop_name": "2nd St & Broadway", "closest_stop_dist_m": "136", "source": "SANDAG" }, "geometry": { "type": "Point", "coordinates": [ -116.935104963535338, 32.809415381020315 ] } },
{ "type": "Feature", "properties": { "name": null, "type": "Child_Care_Centers", "programs": null, "address": null, "city": null, "tract_geoid": "06073008600", "total_population": 6204, "closest_stop_name": "Linda Vista Rd & Linda Vista Plaza", "closest_stop_dist_m": "95", "source": "SANDAG" }, "geometry": { "type": "Point", "coordinates": [ -117.172183516326101, 32.784992397586834 ] } },
{ "type": "Feature", "properties": { "name": null, "type": "Child_Care_Centers", "programs": null, "address": null, "city": null, "tract_geoid": "06073020028", "total_population": 3571, "closest_stop_name": "San Marcos Blvd & Tiger Way", "closest_stop_dist_m": "92", "source": "SANDAG" }, "geometry": { "type": "Point", "coordinates": [ -117.166211857272557, 33.141542591229943 ] } },
{ "type": "Feature", "properties": { "name": null, "type": "Child_Care_Centers", "programs": null, "address": null, "city": null, "tract_geoid": "06073016202", "total_population": 3470, "closest_stop_name": "Graves Av & Bradley Av", "closest_stop_dist_m": "574", "source": "SANDAG" }, "geometry": { "type": "Point", "coordinates": [ -116.965166960048293, 32.817993837530942 ] } },
{ "type": "Feature", "properties": { "name": null, "type": "Child_Care_Centers", "programs": null, "address": null, "city": null, "tract_geoid": "06073008350", "total_population": 6722, "closest_stop_name": "Mira Mesa Bl & Parkdale Av", "closest_stop_dist_m": "445", "source": "SANDAG" }, "geometry": { "type": "Point", "coordinates": [ -117.155181305437125, 32.906578473799335 ] } },
{ "type": "Feature", "properties": { "name": null, "type": "Child_Care_Centers", "programs": null, "address": null, "city": null, "tract_geoid": "06073008349", "total_population": 3539, "closest_stop_name": "Mira Mesa Bl & Montongo St", "closest_stop_dist_m": "333", "source": "SANDAG" }, "geometry": { "type": "Point", "coordinates": [ -117.152503538929395, 32.91498694087003 ] } },
{ "type": "Feature", "properties": { "name": null, "type": "Child_Care_Centers", "programs": null, "address": null, "city": null, "tract_geoid": "06073009307", "total_population": 4846, "closest_stop_name": "Camino De La Reina & Mission Valley West", "closest_stop_dist_m": "417", "source": "SANDAG" }, "geometry": { "type": "Point", "coordinates": [ -117.154844539746577, 32.763885700368725 ] } },
{ "type": "Feature", "properties": { "name": null, "type": "Child_Care_Centers", "programs": null, "address": null, "city": null, "tract_geoid": "06073017406", "total_population": 2790, "closest_stop_name": "Santa Fe Dr & Monterey Vista Way", "closest_stop_dist_m": "1942", "source": "SANDAG" }, "geometry": { "type": "Point", "coordinates": [ -117.256740373950521, 33.021331722358084 ] } },
{ "type": "Feature", "properties": { "name": null, "type": "Child_Care_Centers", "programs": null, "address": null, "city": null, "tract_geoid": "06073016804", "total_population": 9452, "closest_stop_name": "Woodside Av & Los Coches Rd", "closest_stop_dist_m": "183", "source": "SANDAG" }, "geometry": { "type": "Point", "coordinates": [ -116.921163632026875, 32.855855619251393 ] } },
{ "type": "Feature", "properties": { "name": null, "type": "Child_Care_Centers", "programs": null, "address": null, "city": null, "tract_geoid": "06073008512", "total_population": 4137, "closest_stop_name": "Genesee Av & Boyd Av", "closest_stop_dist_m": "690", "source": "SANDAG" }, "geometry": { "type": "Point", "coordinates": [ -117.183284941596241, 32.806474573778516 ] } },
{ "type": "Feature", "properties": { "name": null, "type": "Child_Care_Centers", "programs": null, "address": null, "city": null, "tract_geoid": "06073009000", "total_population": 3778, "closest_stop_name": "Linda Vista Rd & Tait St", "closest_stop_dist_m": "64", "source": "SANDAG" }, "geometry": { "type": "Point", "coordinates": [ -117.173534967296519, 32.780455744526108 ] } },
{ "type": "Feature", "properties": { "name": null, "type": "Child_Care_Centers", "programs": null, "address": null, "city": null, "tract_geoid": "06073002702", "total_population": 5592, "closest_stop_name": "University Av & College Av", "closest_stop_dist_m": "68", "source": "SANDAG" }, "geometry": { "type": "Point", "coordinates": [ -117.065565613585036, 32.7527422538707 ] } },
{ "type": "Feature", "properties": { "name": null, "type": "Child_Care_Centers", "programs": null, "address": null, "city": null, "tract_geoid": "06073020038", "total_population": 5685, "closest_stop_name": "Mission Rd & Mulberry Dr", "closest_stop_dist_m": "4031", "source": "SANDAG" }, "geometry": { "type": "Point", "coordinates": [ -117.158670527951358, 33.180646184654876 ] } },
{ "type": "Feature", "properties": { "name": null, "type": "Child_Care_Centers", "programs": null, "address": null, "city": null, "tract_geoid": "06073016202", "total_population": 3470, "closest_stop_name": "Madison Av & Magnolia Av", "closest_stop_dist_m": "92", "source": "SANDAG" }, "geometry": { "type": "Point", "coordinates": [ -116.963089711752602, 32.799917676942897 ] } },
{ "type": "Feature", "properties": { "name": null, "type": "Child_Care_Centers", "programs": null, "address": null, "city": null, "tract_geoid": "06073020037", "total_population": 4415, "closest_stop_name": "Rancho Santa Fe Rd & Grand Av", "closest_stop_dist_m": "46", "source": "SANDAG" }, "geometry": { "type": "Point", "coordinates": [ -117.200266802746242, 33.146742050638636 ] } },
{ "type": "Feature", "properties": { "name": null, "type": "Child_Care_Centers", "programs": null, "address": null, "city": null, "tract_geoid": "06073002904", "total_population": 9700, "closest_stop_name": "College Av & Arosa St", "closest_stop_dist_m": "16", "source": "SANDAG" }, "geometry": { "type": "Point", "coordinates": [ -117.066552765228096, 32.765519254606453 ] } },
{ "type": "Feature", "properties": { "name": null, "type": "Child_Care_Centers", "programs": null, "address": null, "city": null, "tract_geoid": "06073009504", "total_population": 6428, "closest_stop_name": "Alliant University", "closest_stop_dist_m": "1073", "source": "SANDAG" }, "geometry": { "type": "Point", "coordinates": [ -117.086618586011298, 32.901127576005706 ] } },
{ "type": "Feature", "properties": { "name": null, "type": "Child_Care_Centers", "programs": null, "address": null, "city": null, "tract_geoid": "06073008358", "total_population": 5836, "closest_stop_name": "Mira Mesa Bl & Rickert Rd", "closest_stop_dist_m": "163", "source": "SANDAG" }, "geometry": { "type": "Point", "coordinates": [ -117.127296471064881, 32.915599313483938 ] } },
{ "type": "Feature", "properties": { "name": null, "type": "Child_Care_Centers", "programs": null, "address": null, "city": null, "tract_geoid": "06073009201", "total_population": 6288, "closest_stop_name": "Aero Dr & Afton Rd", "closest_stop_dist_m": "127", "source": "SANDAG" }, "geometry": { "type": "Point", "coordinates": [ -117.145001279831021, 32.808648742611794 ] } },
{ "type": "Feature", "properties": { "name": null, "type": "Child_Care_Centers", "programs": null, "address": null, "city": null, "tract_geoid": "06073009706", "total_population": 7127, "closest_stop_name": "Jackson Dr & Hyde Park Dr", "closest_stop_dist_m": "658", "source": "SANDAG" }, "geometry": { "type": "Point", "coordinates": [ -117.044988992905999, 32.796607886410854 ] } },
{ "type": "Feature", "properties": { "name": null, "type": "Child_Care_Centers", "programs": null, "address": null, "city": null, "tract_geoid": "06073016302", "total_population": 5669, "closest_stop_name": "Broadway & Anza St", "closest_stop_dist_m": "358", "source": "SANDAG" }, "geometry": { "type": "Point", "coordinates": [ -116.948330557639764, 32.804625046377815 ] } },
{ "type": "Feature", "properties": { "name": null, "type": "Child_Care_Centers", "programs": null, "address": null, "city": null, "tract_geoid": "06073008901", "total_population": 5576, "closest_stop_name": "Ulric St & Tait St", "closest_stop_dist_m": "114", "source": "SANDAG" }, "geometry": { "type": "Point", "coordinates": [ -117.170506546043555, 32.780544000467685 ] } },
{ "type": "Feature", "properties": { "name": null, "type": "Child_Care_Centers", "programs": null, "address": null, "city": null, "tract_geoid": "06073017801", "total_population": 6941, "closest_stop_name": "Carlsbad Village Dr & Highland Dr (E)", "closest_stop_dist_m": "45", "source": "SANDAG" }, "geometry": { "type": "Point", "coordinates": [ -117.337292855642559, 33.166086586187916 ] } },
{ "type": "Feature", "properties": { "name": null, "type": "Child_Care_Centers", "programs": null, "address": null, "city": null, "tract_geoid": "06073017071", "total_population": 5229, "closest_stop_name": "West Bernardo Dr & Sony", "closest_stop_dist_m": "919", "source": "SANDAG" }, "geometry": { "type": "Point", "coordinates": [ -117.092939915390673, 33.020157084150753 ] } },
{ "type": "Feature", "properties": { "name": null, "type": "Child_Care_Centers", "programs": null, "address": null, "city": null, "tract_geoid": "06073017502", "total_population": 3545, "closest_stop_name": "Encinitas Bl & Town & Country", "closest_stop_dist_m": "110", "source": "SANDAG" }, "geometry": { "type": "Point", "coordinates": [ -117.281109766189914, 33.045936645291349 ] } },
{ "type": "Feature", "properties": { "name": null, "type": "Child_Care_Centers", "programs": null, "address": null, "city": null, "tract_geoid": "06073015802", "total_population": 4479, "closest_stop_name": "Claydelle Av & E Main St", "closest_stop_dist_m": "195", "source": "SANDAG" }, "geometry": { "type": "Point", "coordinates": [ -116.957238457069778, 32.793314398440991 ] } },
{ "type": "Feature", "properties": { "name": null, "type": "Child_Care_Centers", "programs": null, "address": null, "city": null, "tract_geoid": "06073009104", "total_population": 3064, "closest_stop_name": "Morena Bl & Napier St", "closest_stop_dist_m": "119", "source": "SANDAG" }, "geometry": { "type": "Point", "coordinates": [ -117.205735659602198, 32.78173268776807 ] } },
{ "type": "Feature", "properties": { "name": null, "type": "Child_Care_Centers", "programs": null, "address": null, "city": null, "tract_geoid": "06073009104", "total_population": 3064, "closest_stop_name": "Morena Bl & Napier St", "closest_stop_dist_m": "123", "source": "SANDAG" }, "geometry": { "type": "Point", "coordinates": [ -117.20577426209276, 32.781571689560622 ] } },
{ "type": "Feature", "properties": { "name": null, "type": "Child_Care_Centers", "programs": null, "address": null, "city": null, "tract_geoid": "06073015802", "total_population": 4479, "closest_stop_name": "Magnolia Av & E Camden Av", "closest_stop_dist_m": "232", "source": "SANDAG" }, "geometry": { "type": "Point", "coordinates": [ -116.959698887974739, 32.790658249550589 ] } },